[
  {
    "id": 1,
    "name": "Virginia Woolf",
    "birth_year": 1882,
    "birthplace": "London, England",
    "latitude": 51.5074,
    "longitude": -0.1278,
    "wikidata_id": "Q40909"
  },
  {
    "id": 2,
    "name": "James Joyce",
    "birth_year": 1882,
    "birthplace": "Dublin, Ireland",
    "latitude": 53.3498,
    "longitude": -6.2603,
    "wikidata_id": "Q6691"
  },
  {
    "id": 3,
    "name": "Franz Kafka",
    "birth_year": 1883,
    "birthplace": "Prague, Bohemia",
    "latitude": 50.0755,
    "longitude": 14.4378,
    "wikidata_id": "Q905"
  },
  {
    "id": 4,
    "name": "T.S. Eliot",
    "birth_year": 1888,
    "birthplace": "St. Louis, Missouri",
    "latitude": 38.627,
    "longitude": -90.1994,
    "wikidata_id": "Q37767"
  },
  {
    "id": 5,
    "name": "Marcel Proust",
    "birth_year": 1871,
    "birthplace": "Paris, France",
    "latitude": 48.8566,
    "longitude": 2.3522,
    "wikidata_id": "Q7045"
  },
  {
    "id": 6,
    "name": "Ernest Hemingway",
    "birth_year": 1899,
    "birthplace": "Oak Park, Illinois",
    "latitude": 41.885,
    "longitude": -87.7845,
    "wikidata_id": "Q23434"
  },
  {
    "id": 7,
    "name": "F. Scott Fitzgerald",
    "birth_year": 1896,
    "birthplace": "St. Paul, Minnesota",
    "latitude": 44.9537,
    "longitude": -93.09,
    "wikidata_id": "Q93354"
  },
  {
    "id": 8,
    "name": "William Faulkner",
    "birth_year": 1897,
    "birthplace": "New Albany, Mississippi",
    "latitude": 34.4943,
    "longitude": -89.0078,
    "wikidata_id": "Q9095"
  },
  {
    "id": 9,
    "name": "Gertrude Stein",
    "birth_year": 1874,
    "birthplace": "Allegheny, Pennsylvania",
    "latitude": 40.4774,
    "longitude": -80.0125,
    "wikidata_id": "Q102071"
  },
  {
    "id": 10,
    "name": "Ezra Pound",
    "birth_year": 1885,
    "birthplace": "Hailey, Idaho",
    "latitude": 43.5196,
    "longitude": -114.3153,
    "wikidata_id": "Q170509"
  },
  {
    "id": 11,
    "name": "A. Scott Berg",
    "birth_year": 1949,
    "birthplace": "Norwalk, Connecticut",
    "latitude": 41.09388732910156,
    "longitude": -73.41972351074219,
    "dbpedia_uri": "http://dbpedia.org/resource/A._Scott_Berg"
  },
  {
    "id": 12,
    "name": "Aaron Badgley",
    "birth_year": 1964,
    "birthplace": "Ontario",
    "latitude": 49.25,
    "longitude": -84.5,
    "dbpedia_uri": "http://dbpedia.org/resource/Aaron_Badgley"
  },
  {
    "id": 13,
    "name": "Adam Mickiewicz",
    "birth_year": 1798,
    "birthplace": "Zavosse",
    "latitude": 53.27861022949219,
    "longitude": 26.1158332824707,
    "dbpedia_uri": "http://dbpedia.org/resource/Adam_Mickiewicz"
  },
  {
    "id": 14,
    "name": "Agnes Sligh Turnbull",
    "birth_year": 1888,
    "birthplace": "New Alexandria, Pennsylvania",
    "latitude": 40.39722061157227,
    "longitude": -79.42361450195312,
    "dbpedia_uri": "http://dbpedia.org/resource/Agnes_Sligh_Turnbull"
  },
  {
    "id": 15,
    "name": "Aidan Chambers",
    "birth_year": 1934,
    "birthplace": "County Durham",
    "latitude": 54.66666793823242,
    "longitude": -1.833333373069763,
    "dbpedia_uri": "http://dbpedia.org/resource/Aidan_Chambers"
  },
  {
    "id": 16,
    "name": "Akbar Agha",
    "birth_year": 1943,
    "birthplace": "Pakistan",
    "latitude": 33.69166564941406,
    "longitude": 73.05000305175781,
    "dbpedia_uri": "http://dbpedia.org/resource/Akbar_Agha"
  },
  {
    "id": 17,
    "name": "Akhil Sharma",
    "birth_year": 1971,
    "birthplace": "Delhi",
    "latitude": 28.61000061035156,
    "longitude": 77.2300033569336,
    "dbpedia_uri": "http://dbpedia.org/resource/Akhil_Sharma"
  },
  {
    "id": 18,
    "name": "Alan Gratz",
    "birth_year": 1972,
    "birthplace": "Knoxville, Tennessee",
    "latitude": 35.96170043945312,
    "longitude": -83.92320251464844,
    "dbpedia_uri": "http://dbpedia.org/resource/Alan_Gratz"
  },
  {
    "id": 19,
    "name": "Alan Hollinghurst",
    "birth_year": 1954,
    "birthplace": "Gloucestershire",
    "latitude": 51.79999923706055,
    "longitude": -2.200000047683716,
    "dbpedia_uri": "http://dbpedia.org/resource/Alan_Hollinghurst"
  },
  {
    "id": 20,
    "name": "Alan Simpson",
    "birth_year": 1929,
    "birthplace": "Brixton",
    "latitude": 51.45750045776367,
    "longitude": -0.1174999997019768,
    "dbpedia_uri": "http://dbpedia.org/resource/Alan_Simpson_(scriptwriter)"
  },
  {
    "id": 21,
    "name": "Aldous Huxley",
    "birth_year": 1894,
    "birthplace": "Surrey",
    "latitude": 51.25,
    "longitude": -0.449999988079071,
    "dbpedia_uri": "http://dbpedia.org/resource/Aldous_Huxley"
  },
  {
    "id": 22,
    "name": "Alex Haley",
    "birth_year": 1921,
    "birthplace": "Ithaca, New York",
    "latitude": 42.44333267211914,
    "longitude": -76.5,
    "dbpedia_uri": "http://dbpedia.org/resource/Alex_Haley"
  },
  {
    "id": 23,
    "name": "Ali Moeen",
    "birth_year": 1968,
    "birthplace": "Lahore",
    "latitude": 31.54972267150879,
    "longitude": 74.34361267089844,
    "dbpedia_uri": "http://dbpedia.org/resource/Ali_Moeen"
  },
  {
    "id": 24,
    "name": "Ali Smith",
    "birth_year": 1962,
    "birthplace": "Inverness",
    "latitude": 57.47779846191406,
    "longitude": -4.224699974060059,
    "dbpedia_uri": "http://dbpedia.org/resource/Ali_Smith"
  },
  {
    "id": 25,
    "name": "Alice Nutter",
    "birth_year": 1962,
    "birthplace": "Lancashire",
    "latitude": 53.79999923706055,
    "longitude": -2.599999904632568,
    "dbpedia_uri": "http://dbpedia.org/resource/Alice_Nutter_(writer)"
  },
  {
    "id": 26,
    "name": "Alice D. Schroeder",
    "birth_year": 1956,
    "birthplace": "Texas",
    "latitude": 31.0,
    "longitude": -99.0,
    "dbpedia_uri": "http://dbpedia.org/resource/Alice_Schroeder"
  },
  {
    "id": 27,
    "name": "Alisa Valdes",
    "birth_year": 1969,
    "birthplace": "Albuquerque, New Mexico",
    "latitude": 35.08499908447266,
    "longitude": -106.6500015258789,
    "dbpedia_uri": "http://dbpedia.org/resource/Alisa_Valdes"
  },
  {
    "id": 28,
    "name": "Alison Goodman",
    "birth_year": 1966,
    "birthplace": "Melbourne",
    "latitude": -37.81416702270508,
    "longitude": 144.9630584716797,
    "dbpedia_uri": "http://dbpedia.org/resource/Alison_Goodman"
  },
  {
    "id": 29,
    "name": "Alison Lester",
    "birth_year": 1952,
    "birthplace": "Foster, Victoria",
    "latitude": -38.65000152587891,
    "longitude": 146.1999969482422,
    "dbpedia_uri": "http://dbpedia.org/resource/Alison_Lester"
  },
  {
    "id": 30,
    "name": "Alison Prince",
    "birth_year": 1931,
    "birthplace": "Beckenham",
    "latitude": 51.40800094604492,
    "longitude": -0.02199999988079071,
    "dbpedia_uri": "http://dbpedia.org/resource/Alison_Prince"
  },
  {
    "id": 31,
    "name": "Allen Tate",
    "birth_year": 1899,
    "birthplace": "Winchester, Kentucky",
    "latitude": 37.99472045898438,
    "longitude": -84.18416595458984,
    "dbpedia_uri": "http://dbpedia.org/resource/Allen_Tate"
  },
  {
    "id": 32,
    "name": "Allison Adelle Hedge Coke",
    "birth_year": 1958,
    "birthplace": "Amarillo, Texas",
    "latitude": 35.19916534423828,
    "longitude": -101.8452758789062,
    "dbpedia_uri": "http://dbpedia.org/resource/Allison_Hedge_Coke"
  },
  {
    "id": 33,
    "name": "Alma De Groen",
    "birth_year": 1941,
    "birthplace": "New Zealand",
    "latitude": -41.29999923706055,
    "longitude": 174.7833404541016,
    "dbpedia_uri": "http://dbpedia.org/resource/Alma_De_Groen"
  },
  {
    "id": 34,
    "name": "Amy Hempel",
    "birth_year": 1951,
    "birthplace": "Chicago",
    "latitude": 41.88194274902344,
    "longitude": -87.62777709960938,
    "dbpedia_uri": "http://dbpedia.org/resource/Amy_Hempel"
  },
  {
    "id": 35,
    "name": "Amy Hill Hearth",
    "birth_year": 1958,
    "birthplace": "Pittsfield, Massachusetts",
    "latitude": 42.45000076293945,
    "longitude": -73.25,
    "dbpedia_uri": "http://dbpedia.org/resource/Amy_Hill_Hearth"
  },
  {
    "id": 36,
    "name": "Amy Richards",
    "birth_year": 1970,
    "birthplace": "Alexandria, Virginia",
    "latitude": 38.82027816772461,
    "longitude": -77.05027770996094,
    "dbpedia_uri": "http://dbpedia.org/resource/Amy_Richards"
  },
  {
    "id": 37,
    "name": "Ander Monson",
    "birth_year": 1975,
    "birthplace": "Ann Arbor, Michigan",
    "latitude": 42.28138732910156,
    "longitude": -83.74833679199219,
    "dbpedia_uri": "http://dbpedia.org/resource/Ander_Monson"
  },
  {
    "id": 38,
    "name": "Andrew Miller",
    "birth_year": 1960,
    "birthplace": "Bristol",
    "latitude": 51.45360946655273,
    "longitude": -2.597500085830688,
    "dbpedia_uri": "http://dbpedia.org/resource/Andrew_Miller_(novelist)"
  },
  {
    "id": 39,
    "name": "Angie Thomas",
    "birth_year": 1988,
    "birthplace": "Jackson, Mississippi",
    "latitude": 32.29888916015625,
    "longitude": -90.18472290039062,
    "dbpedia_uri": "http://dbpedia.org/resource/Angie_Thomas"
  },
  {
    "id": 40,
    "name": "Anna Laetitia Barbauld",
    "birth_year": 1743,
    "birthplace": "Kibworth",
    "latitude": 52.54000091552734,
    "longitude": -1.0,
    "dbpedia_uri": "http://dbpedia.org/resource/Anna_Laetitia_Barbauld"
  },
  {
    "id": 41,
    "name": "Anna Sewell",
    "birth_year": 1820,
    "birthplace": "Norfolk",
    "latitude": 52.67250061035156,
    "longitude": 0.949999988079071,
    "dbpedia_uri": "http://dbpedia.org/resource/Anna_Sewell"
  },
  {
    "id": 42,
    "name": "Anne Brontë",
    "birth_year": 1820,
    "birthplace": "Thornton, West Yorkshire",
    "latitude": 53.78979873657227,
    "longitude": -1.850399971008301,
    "dbpedia_uri": "http://dbpedia.org/resource/Anne_Brontë"
  },
  {
    "id": 43,
    "name": "Anne Enright",
    "birth_year": 1962,
    "birthplace": "Dublin",
    "latitude": 53.34999847412109,
    "longitude": -6.26027774810791,
    "dbpedia_uri": "http://dbpedia.org/resource/Anne_Enright"
  },
  {
    "id": 44,
    "name": "Anne Holt",
    "birth_year": 1958,
    "birthplace": "Larvik",
    "latitude": 59.08111190795898,
    "longitude": 10.01638889312744,
    "dbpedia_uri": "http://dbpedia.org/resource/Anne_Holt"
  },
  {
    "id": 45,
    "name": "Anthony Horowitz",
    "birth_year": 1955,
    "birthplace": "Stanmore",
    "latitude": 51.61800003051758,
    "longitude": -0.3140000104904175,
    "dbpedia_uri": "http://dbpedia.org/resource/Anthony_Horowitz"
  },
  {
    "id": 46,
    "name": "Antonio de Morga",
    "birth_year": 1559,
    "birthplace": "Crown of Castile",
    "latitude": 40.41749954223633,
    "longitude": -3.714999914169312,
    "dbpedia_uri": "http://dbpedia.org/resource/Antonio_de_Morga"
  },
  {
    "id": 47,
    "name": "Arthur Conan Doyle",
    "birth_year": 1859,
    "birthplace": "Edinburgh",
    "latitude": 55.95000076293945,
    "longitude": -3.183333396911621,
    "dbpedia_uri": "http://dbpedia.org/resource/Arthur_Conan_Doyle"
  },
  {
    "id": 48,
    "name": "Arthur Miller",
    "birth_year": 1915,
    "birthplace": "Harlem",
    "latitude": 40.80888748168945,
    "longitude": -73.94833374023438,
    "dbpedia_uri": "http://dbpedia.org/resource/Arthur_Miller"
  },
  {
    "id": 49,
    "name": "Arthur Ransome",
    "birth_year": 1884,
    "birthplace": "Leeds",
    "latitude": 53.79750061035156,
    "longitude": -1.543611168861389,
    "dbpedia_uri": "http://dbpedia.org/resource/Arthur_Ransome"
  },
  {
    "id": 50,
    "name": "Ashok Chavda",
    "birth_year": 1978,
    "birthplace": "Bhavnagar",
    "latitude": 21.76000022888184,
    "longitude": 72.1500015258789,
    "dbpedia_uri": "http://dbpedia.org/resource/Ashok_Chavda"
  },
  {
    "id": 51,
    "name": "Astrid Lindgren",
    "birth_year": 1907,
    "birthplace": "Vimmerby",
    "latitude": 57.66666793823242,
    "longitude": 15.85000038146973,
    "dbpedia_uri": "http://dbpedia.org/resource/Astrid_Lindgren"
  },
  {
    "id": 52,
    "name": "Augusto Cury",
    "birth_year": 1958,
    "birthplace": "Colina, São Paulo",
    "latitude": -20.7136116027832,
    "longitude": -48.54111099243164,
    "dbpedia_uri": "http://dbpedia.org/resource/Augusto_Cury"
  },
  {
    "id": 53,
    "name": "Balakumaran",
    "birth_year": 1946,
    "birthplace": "Tamil Nadu",
    "latitude": 11.0,
    "longitude": 79.0,
    "dbpedia_uri": "http://dbpedia.org/resource/Balakumaran"
  },
  {
    "id": 54,
    "name": "Barbara Baynton",
    "birth_year": 1857,
    "birthplace": "Scone, New South Wales",
    "latitude": -32.08333206176758,
    "longitude": 150.8500061035156,
    "dbpedia_uri": "http://dbpedia.org/resource/Barbara_Baynton"
  },
  {
    "id": 55,
    "name": "Barbara Vernon",
    "birth_year": 1916,
    "birthplace": "Inverell",
    "latitude": -29.76666641235352,
    "longitude": 151.1166687011719,
    "dbpedia_uri": "http://dbpedia.org/resource/Barbara_Vernon_(writer)"
  },
  {
    "id": 56,
    "name": "John Basil Boothroyd",
    "birth_year": 1910,
    "birthplace": "Worksop",
    "latitude": 53.30416488647461,
    "longitude": -1.124444484710693,
    "dbpedia_uri": "http://dbpedia.org/resource/Basil_Boothroyd"
  },
  {
    "id": 57,
    "name": "Ben Greenman",
    "birth_year": 1969,
    "birthplace": "Chicago",
    "latitude": 41.88194274902344,
    "longitude": -87.62777709960938,
    "dbpedia_uri": "http://dbpedia.org/resource/Ben_Greenman"
  },
  {
    "id": 58,
    "name": "Bernard Cornwell",
    "birth_year": 1944,
    "birthplace": "London",
    "latitude": 51.50722122192383,
    "longitude": -0.1274999976158142,
    "dbpedia_uri": "http://dbpedia.org/resource/Bernard_Cornwell"
  },
  {
    "id": 59,
    "name": "Boris Akunin",
    "birth_year": 1956,
    "birthplace": "Soviet Union",
    "latitude": 55.75,
    "longitude": 37.61666488647461,
    "dbpedia_uri": "http://dbpedia.org/resource/Boris_Akunin"
  },
  {
    "id": 60,
    "name": "Brandon Mull",
    "birth_year": 1974,
    "birthplace": "Utah",
    "latitude": 39.0,
    "longitude": -111.0,
    "dbpedia_uri": "http://dbpedia.org/resource/Brandon_Mull"
  },
  {
    "id": 61,
    "name": "Brenda Janowitz",
    "birth_year": 1973,
    "birthplace": "Long Island",
    "latitude": 40.79999923706055,
    "longitude": -73.30000305175781,
    "dbpedia_uri": "http://dbpedia.org/resource/Brenda_Janowitz"
  },
  {
    "id": 62,
    "name": "Brian Moore",
    "birth_year": 1921,
    "birthplace": "Northern Ireland",
    "latitude": 54.59600067138672,
    "longitude": -5.929999828338623,
    "dbpedia_uri": "http://dbpedia.org/resource/Brian_Moore_(novelist)"
  },
  {
    "id": 63,
    "name": "Bruce Coville",
    "birth_year": 1950,
    "birthplace": "Syracuse, New York",
    "latitude": 43.03027725219727,
    "longitude": -76.14444732666016,
    "dbpedia_uri": "http://dbpedia.org/resource/Bruce_Coville"
  },
  {
    "id": 64,
    "name": "Bryan Washington",
    "birth_year": 1993,
    "birthplace": "Kentucky",
    "latitude": 37.0,
    "longitude": -86.0,
    "dbpedia_uri": "http://dbpedia.org/resource/Bryan_Washington"
  },
  {
    "id": 65,
    "name": "Bryce Courtenay",
    "birth_year": 1933,
    "birthplace": "Lebombo Mountains",
    "latitude": -26.25,
    "longitude": 32.0,
    "dbpedia_uri": "http://dbpedia.org/resource/Bryce_Courtenay"
  },
  {
    "id": 66,
    "name": "C. S. Lewis",
    "birth_year": 1898,
    "birthplace": "Belfast",
    "latitude": 54.59694290161133,
    "longitude": -5.929166793823242,
    "dbpedia_uri": "http://dbpedia.org/resource/C._S._Lewis"
  },
  {
    "id": 67,
    "name": "Carey Harrison",
    "birth_year": 1944,
    "birthplace": "Kensington",
    "latitude": 51.5,
    "longitude": -0.1899999976158142,
    "dbpedia_uri": "http://dbpedia.org/resource/Carey_Harrison"
  },
  {
    "id": 68,
    "name": "Carmen Martín Gaite",
    "birth_year": 1925,
    "birthplace": "Spain",
    "latitude": 40.43333435058594,
    "longitude": -3.700000047683716,
    "dbpedia_uri": "http://dbpedia.org/resource/Carmen_Martín_Gaite"
  },
  {
    "id": 69,
    "name": "Carol Shields",
    "birth_year": 1935,
    "birthplace": "Oak Park, Illinois",
    "latitude": 41.88833236694336,
    "longitude": -87.78944396972656,
    "dbpedia_uri": "http://dbpedia.org/resource/Carol_Shields"
  },
  {
    "id": 70,
    "name": "Caroline B. Cooney",
    "birth_year": 1947,
    "birthplace": "Geneva, New York",
    "latitude": 42.87888717651367,
    "longitude": -76.99305725097656,
    "dbpedia_uri": "http://dbpedia.org/resource/Caroline_B._Cooney"
  },
  {
    "id": 71,
    "name": "Carrie Kemper",
    "birth_year": 1984,
    "birthplace": "Kansas City, Missouri",
    "latitude": 39.09972381591797,
    "longitude": -94.57833099365234,
    "dbpedia_uri": "http://dbpedia.org/resource/Carrie_Kemper"
  },
  {
    "id": 72,
    "name": "Carrie Vaughn",
    "birth_year": 1973,
    "birthplace": "Mather Air Force Base",
    "latitude": 38.55389022827148,
    "longitude": -121.2975006103516,
    "dbpedia_uri": "http://dbpedia.org/resource/Carrie_Vaughn"
  },
  {
    "id": 73,
    "name": "Caryl Phillips",
    "birth_year": 1958,
    "birthplace": "Saint Kitts",
    "latitude": 17.30999946594238,
    "longitude": -62.72000122070312,
    "dbpedia_uri": "http://dbpedia.org/resource/Caryl_Phillips"
  },
  {
    "id": 74,
    "name": "Chang-rae Lee",
    "birth_year": 1965,
    "birthplace": "South Korea",
    "latitude": 37.54999923706055,
    "longitude": 126.966667175293,
    "dbpedia_uri": "http://dbpedia.org/resource/Chang-Rae_Lee"
  },
  {
    "id": 75,
    "name": "Charlie N. Holmberg",
    "birth_year": 1988,
    "birthplace": "Utah",
    "latitude": 39.0,
    "longitude": -111.0,
    "dbpedia_uri": "http://dbpedia.org/resource/Charlie_N._Holmberg"
  },
  {
    "id": 76,
    "name": "Chika Unigwe",
    "birth_year": 1974,
    "birthplace": "Nigeria",
    "latitude": 9.066666603088379,
    "longitude": 7.483333110809326,
    "dbpedia_uri": "http://dbpedia.org/resource/Chika_Unigwe"
  },
  {
    "id": 77,
    "name": "Chris Bradford",
    "birth_year": 1973,
    "birthplace": "Aylesbury",
    "latitude": 51.81679916381836,
    "longitude": -0.8123999834060669,
    "dbpedia_uri": "http://dbpedia.org/resource/Chris_Bradford"
  },
  {
    "id": 78,
    "name": "Chris Lynch",
    "birth_year": 1962,
    "birthplace": "Boston",
    "latitude": 42.36027908325195,
    "longitude": -71.05777740478516,
    "dbpedia_uri": "http://dbpedia.org/resource/Chris_Lynch"
  },
  {
    "id": 79,
    "name": "Chris Sheridan",
    "birth_year": 1967,
    "birthplace": "Philippines",
    "latitude": 13.0,
    "longitude": 122.0,
    "dbpedia_uri": "http://dbpedia.org/resource/Chris_Sheridan_(writer)"
  },
  {
    "id": 80,
    "name": "Chris d'Lacey",
    "birth_year": 1954,
    "birthplace": "Malta",
    "latitude": 35.90000152587891,
    "longitude": 14.51666641235352,
    "dbpedia_uri": "http://dbpedia.org/resource/Chris_d'Lacey"
  },
  {
    "id": 81,
    "name": "Christian Kracht",
    "birth_year": 1966,
    "birthplace": "Saanen",
    "latitude": 46.48333358764648,
    "longitude": 7.266666889190674,
    "dbpedia_uri": "http://dbpedia.org/resource/Christian_Kracht"
  },
  {
    "id": 82,
    "name": "Christopher Fry",
    "birth_year": 1907,
    "birthplace": "Bristol",
    "latitude": 51.45360946655273,
    "longitude": -2.597500085830688,
    "dbpedia_uri": "http://dbpedia.org/resource/Christopher_Fry"
  },
  {
    "id": 83,
    "name": "Christopher Matthew",
    "birth_year": 1939,
    "birthplace": "Lewisham",
    "latitude": 51.46099853515625,
    "longitude": -0.004999999888241291,
    "dbpedia_uri": "http://dbpedia.org/resource/Christopher_Matthew"
  },
  {
    "id": 84,
    "name": "Christopher Penfold",
    "birth_year": 1941,
    "birthplace": "Bristol",
    "latitude": 51.45360946655273,
    "longitude": -2.597500085830688,
    "dbpedia_uri": "http://dbpedia.org/resource/Christopher_Penfold"
  },
  {
    "id": 85,
    "name": "Chuck Menville",
    "birth_year": 1940,
    "birthplace": "Baton Rouge, Louisiana",
    "latitude": 30.44750022888184,
    "longitude": -91.1786117553711,
    "dbpedia_uri": "http://dbpedia.org/resource/Chuck_Menville"
  },
  {
    "id": 86,
    "name": "Claude McKay",
    "birth_year": 1889,
    "birthplace": "Clarendon Parish, Jamaica",
    "latitude": 18.0,
    "longitude": -77.28333282470703,
    "dbpedia_uri": "http://dbpedia.org/resource/Claude_McKay"
  },
  {
    "id": 87,
    "name": "Conner O'Malley",
    "birth_year": 1986,
    "birthplace": "Chicago",
    "latitude": 41.88194274902344,
    "longitude": -87.62777709960938,
    "dbpedia_uri": "http://dbpedia.org/resource/Conner_O'Malley"
  },
  {
    "id": 88,
    "name": "Craig Brown",
    "birth_year": 1957,
    "birthplace": "Hayes, Hillingdon",
    "latitude": 51.51269912719727,
    "longitude": -0.421099990606308,
    "dbpedia_uri": "http://dbpedia.org/resource/Craig_Brown_(satirist)"
  },
  {
    "id": 89,
    "name": "Cristina García",
    "birth_year": 1958,
    "birthplace": "Cuba",
    "latitude": 23.13333320617676,
    "longitude": -82.38333129882812,
    "dbpedia_uri": "http://dbpedia.org/resource/Cristina_García_(novelist)"
  },
  {
    "id": 90,
    "name": "Curtis Jobling",
    "birth_year": 1972,
    "birthplace": "Blackpool",
    "latitude": 53.81416702270508,
    "longitude": -3.050277709960938,
    "dbpedia_uri": "http://dbpedia.org/resource/Curtis_Jobling"
  },
  {
    "id": 91,
    "name": "D. J. MacHale",
    "birth_year": 1956,
    "birthplace": "Port Chester, New York",
    "latitude": 41.00500106811523,
    "longitude": -73.66889190673828,
    "dbpedia_uri": "http://dbpedia.org/resource/D._J._MacHale"
  },
  {
    "id": 92,
    "name": "Damon Knight",
    "birth_year": 1922,
    "birthplace": "Baker City, Oregon",
    "latitude": 44.77500152587891,
    "longitude": -117.8319473266602,
    "dbpedia_uri": "http://dbpedia.org/resource/Damon_Knight"
  },
  {
    "id": 93,
    "name": "Dan Abnett",
    "birth_year": 1965,
    "birthplace": "Rochester, Kent",
    "latitude": 51.375,
    "longitude": 0.5,
    "dbpedia_uri": "http://dbpedia.org/resource/Dan_Abnett"
  },
  {
    "id": 94,
    "name": "Dan Brown",
    "birth_year": 1964,
    "birthplace": "Exeter, New Hampshire",
    "latitude": 42.98138809204102,
    "longitude": -70.9477767944336,
    "dbpedia_uri": "http://dbpedia.org/resource/Dan_Brown"
  },
  {
    "id": 95,
    "name": "Dan Wakefield",
    "birth_year": 1932,
    "birthplace": "Indianapolis",
    "latitude": 39.76861190795898,
    "longitude": -86.1580581665039,
    "dbpedia_uri": "http://dbpedia.org/resource/Dan_Wakefield"
  },
  {
    "id": 96,
    "name": "Dan Yaccarino",
    "birth_year": 1965,
    "birthplace": "Montclair, New Jersey",
    "latitude": 40.82593154907227,
    "longitude": -74.21085357666016,
    "dbpedia_uri": "http://dbpedia.org/resource/Dan_Yaccarino"
  },
  {
    "id": 97,
    "name": "David J. Schow",
    "birth_year": 1955,
    "birthplace": "Marburg",
    "latitude": 50.81000137329102,
    "longitude": 8.770833015441895,
    "dbpedia_uri": "http://dbpedia.org/resource/David_J._Schow"
  },
  {
    "id": 98,
    "name": "David Marusek",
    "birth_year": 1951,
    "birthplace": "Buffalo, New York",
    "latitude": 42.88639068603516,
    "longitude": -78.8780517578125,
    "dbpedia_uri": "http://dbpedia.org/resource/David_Marusek"
  },
  {
    "id": 99,
    "name": "David Morrell",
    "birth_year": 1943,
    "birthplace": "Kitchener, Ontario",
    "latitude": 43.41860961914062,
    "longitude": -80.4727783203125,
    "dbpedia_uri": "http://dbpedia.org/resource/David_Morrell"
  },
  {
    "id": 100,
    "name": "David Sedaris",
    "birth_year": 1956,
    "birthplace": "Johnson City, New York",
    "latitude": 42.11666488647461,
    "longitude": -75.95944213867188,
    "dbpedia_uri": "http://dbpedia.org/resource/David_Sedaris"
  },
  {
    "id": 101,
    "name": "David Stevens",
    "birth_year": 1940,
    "birthplace": "Tiberias",
    "latitude": 32.7944450378418,
    "longitude": 35.53333282470703,
    "dbpedia_uri": "http://dbpedia.org/resource/David_Stevens_(screenwriter)"
  },
  {
    "id": 102,
    "name": "Diane Johnson",
    "birth_year": 1934,
    "birthplace": "Moline, Illinois",
    "latitude": 41.48888778686523,
    "longitude": -90.50444793701172,
    "dbpedia_uri": "http://dbpedia.org/resource/Diane_Johnson"
  },
  {
    "id": 103,
    "name": "Dick King-Smith",
    "birth_year": 1922,
    "birthplace": "Bitton",
    "latitude": 51.42480087280273,
    "longitude": -2.46003794670105,
    "dbpedia_uri": "http://dbpedia.org/resource/Dick_King-Smith"
  },
  {
    "id": 104,
    "name": "Dick Sharples",
    "birth_year": 1927,
    "birthplace": "Manchester",
    "latitude": 53.47900009155273,
    "longitude": -2.245199918746948,
    "dbpedia_uri": "http://dbpedia.org/resource/Dick_Sharples"
  },
  {
    "id": 105,
    "name": "Dino Stamatopoulos",
    "birth_year": 1964,
    "birthplace": "United States",
    "latitude": 38.88333511352539,
    "longitude": -77.01667022705078,
    "dbpedia_uri": "http://dbpedia.org/resource/Dino_Stamatopoulos"
  },
  {
    "id": 106,
    "name": "Dolly Alderton",
    "birth_year": 1988,
    "birthplace": "London",
    "latitude": 51.50722122192383,
    "longitude": -0.1274999976158142,
    "dbpedia_uri": "http://dbpedia.org/resource/Dolly_Alderton"
  },
  {
    "id": 107,
    "name": "Dominique Mainon",
    "birth_year": 1970,
    "birthplace": "United States",
    "latitude": 38.88333511352539,
    "longitude": -77.01667022705078,
    "dbpedia_uri": "http://dbpedia.org/resource/Dominique_Mainon"
  },
  {
    "id": 108,
    "name": "Donna Tartt",
    "birth_year": 1963,
    "birthplace": "Greenwood, Mississippi",
    "latitude": 33.51861190795898,
    "longitude": -90.20055389404297,
    "dbpedia_uri": "http://dbpedia.org/resource/Donna_Tartt"
  },
  {
    "id": 109,
    "name": "Dorothy Kingsley",
    "birth_year": 1909,
    "birthplace": "New York (state)",
    "latitude": 43.0,
    "longitude": -76.0,
    "dbpedia_uri": "http://dbpedia.org/resource/Dorothy_Kingsley"
  },
  {
    "id": 110,
    "name": "Doug Naylor",
    "birth_year": 1955,
    "birthplace": "Lancashire",
    "latitude": 53.79999923706055,
    "longitude": -2.599999904632568,
    "dbpedia_uri": "http://dbpedia.org/resource/Doug_Naylor"
  },
  {
    "id": 111,
    "name": "Douglas Adams",
    "birth_year": 1952,
    "birthplace": "Cambridge",
    "latitude": 52.20500183105469,
    "longitude": 0.1225000023841858,
    "dbpedia_uri": "http://dbpedia.org/resource/Douglas_Adams"
  },
  {
    "id": 112,
    "name": "Douglas Coupland",
    "birth_year": 1961,
    "birthplace": "CFB Baden–Soellingen",
    "latitude": 48.77936172485352,
    "longitude": 8.080499649047852,
    "dbpedia_uri": "http://dbpedia.org/resource/Douglas_Coupland"
  },
  {
    "id": 113,
    "name": "Ed Burns",
    "birth_year": 1946,
    "birthplace": "Maryland",
    "latitude": 39.0,
    "longitude": -77.0,
    "dbpedia_uri": "http://dbpedia.org/resource/Ed_Burns"
  },
  {
    "id": 114,
    "name": "Edgar Allan Poe",
    "birth_year": 1809,
    "birthplace": "Boston",
    "latitude": 42.36027908325195,
    "longitude": -71.05777740478516,
    "dbpedia_uri": "http://dbpedia.org/resource/Edgar_Allan_Poe"
  },
  {
    "id": 115,
    "name": "Edward Bloor",
    "birth_year": 1950,
    "birthplace": "Trenton, New Jersey",
    "latitude": 40.22027587890625,
    "longitude": -74.76583099365234,
    "dbpedia_uri": "http://dbpedia.org/resource/Edward_Bloor"
  },
  {
    "id": 116,
    "name": "Edwin O'Connor",
    "birth_year": 1918,
    "birthplace": "Providence, Rhode Island",
    "latitude": 41.82361221313477,
    "longitude": -71.42222595214844,
    "dbpedia_uri": "http://dbpedia.org/resource/Edwin_O'Connor"
  },
  {
    "id": 117,
    "name": "Eiichiro Oda",
    "birth_year": 1975,
    "birthplace": "Kumamoto",
    "latitude": 32.80305480957031,
    "longitude": 130.7077789306641,
    "dbpedia_uri": "http://dbpedia.org/resource/Eiichiro_Oda"
  },
  {
    "id": 118,
    "name": "吉川 英治",
    "birth_year": 1892,
    "birthplace": "Kanagawa Prefecture",
    "latitude": 35.447509765625,
    "longitude": 139.6423492431641,
    "dbpedia_uri": "http://dbpedia.org/resource/Eiji_Yoshikawa"
  },
  {
    "id": 119,
    "name": "Elizabeth Baity",
    "birth_year": 1907,
    "birthplace": "Hamilton, Texas",
    "latitude": 31.68222236633301,
    "longitude": -98.13666534423828,
    "dbpedia_uri": "http://dbpedia.org/resource/Elizabeth_Baity"
  },
  {
    "id": 120,
    "name": "Elizabeth Enright",
    "birth_year": 1907,
    "birthplace": "Oak Park, Illinois",
    "latitude": 41.88833236694336,
    "longitude": -87.78944396972656,
    "dbpedia_uri": "http://dbpedia.org/resource/Elizabeth_Enright"
  },
  {
    "id": 121,
    "name": "Elizabeth George Speare",
    "birth_year": 1908,
    "birthplace": "Melrose, Massachusetts",
    "latitude": 42.45833206176758,
    "longitude": -71.06666564941406,
    "dbpedia_uri": "http://dbpedia.org/resource/Elizabeth_George_Speare"
  },
  {
    "id": 122,
    "name": "Elizabeth Strout",
    "birth_year": 1956,
    "birthplace": "Portland, Maine",
    "latitude": 43.65999984741211,
    "longitude": -70.25499725341797,
    "dbpedia_uri": "http://dbpedia.org/resource/Elizabeth_Strout"
  },
  {
    "id": 123,
    "name": "Eric Nylund",
    "birth_year": 1964,
    "birthplace": "Panorama City, Los Angeles",
    "latitude": 34.22472381591797,
    "longitude": -118.4488906860352,
    "dbpedia_uri": "http://dbpedia.org/resource/Eric_Nylund"
  },
  {
    "id": 124,
    "name": "Ernest Cline",
    "birth_year": 1972,
    "birthplace": "Ashland, Ohio",
    "latitude": 40.875,
    "longitude": -82.31805419921875,
    "dbpedia_uri": "http://dbpedia.org/resource/Ernest_Cline"
  },
  {
    "id": 125,
    "name": "Ernest Poole",
    "birth_year": 1880,
    "birthplace": "Chicago",
    "latitude": 41.88194274902344,
    "longitude": -87.62777709960938,
    "dbpedia_uri": "http://dbpedia.org/resource/Ernest_Poole"
  },
  {
    "id": 126,
    "name": "Ethan Canin",
    "birth_year": 1960,
    "birthplace": "Ann Arbor, Michigan",
    "latitude": 42.28138732910156,
    "longitude": -83.74833679199219,
    "dbpedia_uri": "http://dbpedia.org/resource/Ethan_Canin"
  },
  {
    "id": 127,
    "name": "Eudora Welty",
    "birth_year": 1909,
    "birthplace": "Jackson, Mississippi",
    "latitude": 32.29888916015625,
    "longitude": -90.18472290039062,
    "dbpedia_uri": "http://dbpedia.org/resource/Eudora_Welty"
  },
  {
    "id": 128,
    "name": "Ford Madox Ford",
    "birth_year": 1873,
    "birthplace": "Merton, London (parish)",
    "latitude": 51.41019821166992,
    "longitude": -0.2023999989032745,
    "dbpedia_uri": "http://dbpedia.org/resource/Ford_Madox_Ford"
  },
  {
    "id": 129,
    "name": "Frank E. Peretti",
    "birth_year": 1951,
    "birthplace": "Lethbridge",
    "latitude": 49.69361114501953,
    "longitude": -112.8419418334961,
    "dbpedia_uri": "http://dbpedia.org/resource/Frank_E._Peretti"
  },
  {
    "id": 130,
    "name": "George Alfred Henty",
    "birth_year": 1832,
    "birthplace": "Godmanchester",
    "latitude": 52.31760025024414,
    "longitude": -0.1724999994039536,
    "dbpedia_uri": "http://dbpedia.org/resource/G._A._Henty"
  },
  {
    "id": 131,
    "name": "G.F. Newman",
    "birth_year": 1944,
    "birthplace": "Kent",
    "latitude": 51.20000076293945,
    "longitude": 0.699999988079071,
    "dbpedia_uri": "http://dbpedia.org/resource/G._F._Newman"
  },
  {
    "id": 132,
    "name": "Gabrielle Zevin",
    "birth_year": 1977,
    "birthplace": "New York (state)",
    "latitude": 43.0,
    "longitude": -76.0,
    "dbpedia_uri": "http://dbpedia.org/resource/Gabrielle_Zevin"
  },
  {
    "id": 133,
    "name": "Gail Carriger",
    "birth_year": 1976,
    "birthplace": "Bolinas, California",
    "latitude": 37.90944290161133,
    "longitude": -122.6863861083984,
    "dbpedia_uri": "http://dbpedia.org/resource/Gail_Carriger"
  },
  {
    "id": 134,
    "name": "Garth Nix",
    "birth_year": 1963,
    "birthplace": "Melbourne",
    "latitude": -37.81416702270508,
    "longitude": 144.9630584716797,
    "dbpedia_uri": "http://dbpedia.org/resource/Garth_Nix"
  },
  {
    "id": 135,
    "name": "Gary Jennings",
    "birth_year": 1928,
    "birthplace": "Buena Vista, Virginia",
    "latitude": 37.73444366455078,
    "longitude": -79.35416412353516,
    "dbpedia_uri": "http://dbpedia.org/resource/Gary_Jennings_(author)"
  },
  {
    "id": 136,
    "name": "Gene L. Coon",
    "birth_year": 1924,
    "birthplace": "Beatrice, Nebraska",
    "latitude": 40.26833343505859,
    "longitude": -96.74305725097656,
    "dbpedia_uri": "http://dbpedia.org/resource/Gene_L._Coon"
  },
  {
    "id": 137,
    "name": "George Woodcock",
    "birth_year": 1912,
    "birthplace": "Manitoba",
    "latitude": 55.0,
    "longitude": -97.0,
    "dbpedia_uri": "http://dbpedia.org/resource/George_Woodcock"
  },
  {
    "id": 138,
    "name": "Georges Simenon",
    "birth_year": 1903,
    "birthplace": "Wallonia",
    "latitude": 50.5,
    "longitude": 4.75,
    "dbpedia_uri": "http://dbpedia.org/resource/Georges_Simenon"
  },
  {
    "id": 139,
    "name": "Geraldine Brooks",
    "birth_year": 1955,
    "birthplace": "New South Wales",
    "latitude": -32.0,
    "longitude": 147.0,
    "dbpedia_uri": "http://dbpedia.org/resource/Geraldine_Brooks_(writer)"
  },
  {
    "id": 140,
    "name": "Gertrude Atherton",
    "birth_year": 1857,
    "birthplace": "California",
    "latitude": 35.49103546142578,
    "longitude": -119.3478546142578,
    "dbpedia_uri": "http://dbpedia.org/resource/Gertrude_Atherton"
  },
  {
    "id": 141,
    "name": "Graham Greene",
    "birth_year": 1904,
    "birthplace": "Hertfordshire",
    "latitude": 51.81666564941406,
    "longitude": -0.2166666686534882,
    "dbpedia_uri": "http://dbpedia.org/resource/Graham_Greene"
  },
  {
    "id": 142,
    "name": "Grant Wahl",
    "birth_year": 1973,
    "birthplace": "Mission, Kansas",
    "latitude": 39.02694320678711,
    "longitude": -94.65694427490234,
    "dbpedia_uri": "http://dbpedia.org/resource/Grant_Wahl"
  },
  {
    "id": 143,
    "name": "Greg Iles",
    "birth_year": 1960,
    "birthplace": "Baden-Württemberg",
    "latitude": 48.53777694702148,
    "longitude": 9.04111099243164,
    "dbpedia_uri": "http://dbpedia.org/resource/Greg_Iles"
  },
  {
    "id": 144,
    "name": "Gregory Benford",
    "birth_year": 1941,
    "birthplace": "Mobile, Alabama",
    "latitude": 30.66749954223633,
    "longitude": -88.10111236572266,
    "dbpedia_uri": "http://dbpedia.org/resource/Gregory_Benford"
  },
  {
    "id": 145,
    "name": "Guy Lawson",
    "birth_year": 1963,
    "birthplace": "Ontario",
    "latitude": 49.25,
    "longitude": -84.5,
    "dbpedia_uri": "http://dbpedia.org/resource/Guy_Lawson"
  },
  {
    "id": 146,
    "name": "Guy de Maupassant",
    "birth_year": 1850,
    "birthplace": "Normandy",
    "latitude": 48.88000106811523,
    "longitude": 0.1700000017881393,
    "dbpedia_uri": "http://dbpedia.org/resource/Guy_de_Maupassant"
  },
  {
    "id": 147,
    "name": "Hall Caine",
    "birth_year": 1853,
    "birthplace": "Cheshire",
    "latitude": 53.16666793823242,
    "longitude": -2.583333253860474,
    "dbpedia_uri": "http://dbpedia.org/resource/Hall_Caine"
  },
  {
    "id": 148,
    "name": "Hans Christian Andersen",
    "birth_year": 1805,
    "birthplace": "Funen",
    "latitude": 55.34999847412109,
    "longitude": 10.35000038146973,
    "dbpedia_uri": "http://dbpedia.org/resource/Hans_Christian_Andersen"
  },
  {
    "id": 149,
    "name": "Harlan Coben",
    "birth_year": 1962,
    "birthplace": "Newark, New Jersey",
    "latitude": 40.72999954223633,
    "longitude": -74.18000030517578,
    "dbpedia_uri": "http://dbpedia.org/resource/Harlan_Coben"
  },
  {
    "id": 150,
    "name": "Harriet Washington",
    "birth_year": 1951,
    "birthplace": "Joint Base McGuire–Dix–Lakehurst",
    "latitude": 40.01555633544922,
    "longitude": -74.59166717529297,
    "dbpedia_uri": "http://dbpedia.org/resource/Harriet_A._Washington"
  },
  {
    "id": 151,
    "name": "Harry Eugene Crews",
    "birth_year": 1935,
    "birthplace": "Alma, Georgia",
    "latitude": 31.54166603088379,
    "longitude": -82.46666717529297,
    "dbpedia_uri": "http://dbpedia.org/resource/Harry_Crews"
  },
  {
    "id": 152,
    "name": "Harry Driver",
    "birth_year": 1931,
    "birthplace": "Blackley",
    "latitude": 53.5224609375,
    "longitude": -2.222820043563843,
    "dbpedia_uri": "http://dbpedia.org/resource/Harry_Driver"
  },
  {
    "id": 153,
    "name": "Hemant Mehta",
    "birth_year": 1983,
    "birthplace": "Chicago",
    "latitude": 41.88194274902344,
    "longitude": -87.62777709960938,
    "dbpedia_uri": "http://dbpedia.org/resource/Hemant_Mehta"
  },
  {
    "id": 154,
    "name": "Holly Black",
    "birth_year": 1971,
    "birthplace": "West Long Branch, New Jersey",
    "latitude": 40.28790283203125,
    "longitude": -74.02001953125,
    "dbpedia_uri": "http://dbpedia.org/resource/Holly_Black"
  },
  {
    "id": 155,
    "name": "Honoré de Balzac",
    "birth_year": 1799,
    "birthplace": "Tours",
    "latitude": 47.39361190795898,
    "longitude": 0.6891670227050781,
    "dbpedia_uri": "http://dbpedia.org/resource/Honoré_de_Balzac"
  },
  {
    "id": 156,
    "name": "Horton Foote",
    "birth_year": 1916,
    "birthplace": "Wharton, Texas",
    "latitude": 29.31166648864746,
    "longitude": -96.10277557373047,
    "dbpedia_uri": "http://dbpedia.org/resource/Horton_Foote"
  },
  {
    "id": 157,
    "name": "Howard Gordon",
    "birth_year": 1961,
    "birthplace": "Queens",
    "latitude": 40.75,
    "longitude": -73.86666870117188,
    "dbpedia_uri": "http://dbpedia.org/resource/Howard_Gordon"
  },
  {
    "id": 158,
    "name": "Huanzhulouzhu",
    "birth_year": 1902,
    "birthplace": "Qing dynasty",
    "latitude": 39.91999816894531,
    "longitude": 116.3899993896484,
    "dbpedia_uri": "http://dbpedia.org/resource/Huanzhulouzhu"
  },
  {
    "id": 159,
    "name": "Humphrey Carpenter",
    "birth_year": 1946,
    "birthplace": "Oxford",
    "latitude": 51.75194549560547,
    "longitude": -1.257777810096741,
    "dbpedia_uri": "http://dbpedia.org/resource/Humphrey_Carpenter"
  },
  {
    "id": 160,
    "name": "Iain Banks",
    "birth_year": 1954,
    "birthplace": "Fife",
    "latitude": 56.25,
    "longitude": -3.200000047683716,
    "dbpedia_uri": "http://dbpedia.org/resource/Iain_Banks"
  },
  {
    "id": 161,
    "name": "Iain Morris",
    "birth_year": 1973,
    "birthplace": "Surrey",
    "latitude": 51.25,
    "longitude": -0.449999988079071,
    "dbpedia_uri": "http://dbpedia.org/resource/Iain_Morris"
  },
  {
    "id": 162,
    "name": "Ian Brennan",
    "birth_year": 1978,
    "birthplace": "Mount Prospect, Illinois",
    "latitude": 42.06555557250977,
    "longitude": -87.93611145019531,
    "dbpedia_uri": "http://dbpedia.org/resource/Ian_Brennan_(writer)"
  },
  {
    "id": 163,
    "name": "Ian La Frenais",
    "birth_year": 1937,
    "birthplace": "Northumberland",
    "latitude": 55.16666793823242,
    "longitude": -2.0,
    "dbpedia_uri": "http://dbpedia.org/resource/Ian_La_Frenais"
  },
  {
    "id": 164,
    "name": "Ib Melchior",
    "birth_year": 1917,
    "birthplace": "Copenhagen",
    "latitude": 55.67610931396484,
    "longitude": 12.56833362579346,
    "dbpedia_uri": "http://dbpedia.org/resource/Ib_Melchior"
  },
  {
    "id": 165,
    "name": "Irvine Welsh",
    "birth_year": 1958,
    "birthplace": "Leith",
    "latitude": 55.97999954223633,
    "longitude": -3.170000076293945,
    "dbpedia_uri": "http://dbpedia.org/resource/Irvine_Welsh"
  },
  {
    "id": 166,
    "name": "Irène Némirovsky",
    "birth_year": 1903,
    "birthplace": "Kiev Governorate",
    "latitude": 50.45000076293945,
    "longitude": 30.52359962463379,
    "dbpedia_uri": "http://dbpedia.org/resource/Irène_Némirovsky"
  },
  {
    "id": 167,
    "name": "Isaac Bashevis Singer",
    "birth_year": 1903,
    "birthplace": "Leoncin",
    "latitude": 52.40000152587891,
    "longitude": 20.54999923706055,
    "dbpedia_uri": "http://dbpedia.org/resource/Isaac_Bashevis_Singer"
  },
  {
    "id": 168,
    "name": "J. K. Rowling",
    "birth_year": 1965,
    "birthplace": "Yate",
    "latitude": 51.54019927978516,
    "longitude": -2.410989046096802,
    "dbpedia_uri": "http://dbpedia.org/resource/J._K._Rowling"
  },
  {
    "id": 169,
    "name": "J. R. R. Tolkien",
    "birth_year": 1892,
    "birthplace": "Bloemfontein",
    "latitude": -29.11666679382324,
    "longitude": 26.21666717529297,
    "dbpedia_uri": "http://dbpedia.org/resource/J._R._R._Tolkien"
  },
  {
    "id": 170,
    "name": "Jack Douglas",
    "birth_year": 1908,
    "birthplace": "United States",
    "latitude": 38.88333511352539,
    "longitude": -77.01667022705078,
    "dbpedia_uri": "http://dbpedia.org/resource/Jack_Douglas_(writer)"
  },
  {
    "id": 171,
    "name": "Jack Heath",
    "birth_year": 1986,
    "birthplace": "Australia",
    "latitude": -35.30805587768555,
    "longitude": 149.1244506835938,
    "dbpedia_uri": "http://dbpedia.org/resource/Jack_Heath"
  },
  {
    "id": 172,
    "name": "Jack London",
    "birth_year": 1876,
    "birthplace": "San Francisco",
    "latitude": 37.78333282470703,
    "longitude": -122.4166641235352,
    "dbpedia_uri": "http://dbpedia.org/resource/Jack_London"
  },
  {
    "id": 173,
    "name": "Jack Olsen",
    "birth_year": 1925,
    "birthplace": "Indianapolis",
    "latitude": 39.76861190795898,
    "longitude": -86.1580581665039,
    "dbpedia_uri": "http://dbpedia.org/resource/Jack_Olsen"
  },
  {
    "id": 174,
    "name": "Jack Prelutsky",
    "birth_year": 1940,
    "birthplace": "Brooklyn",
    "latitude": 40.65000152587891,
    "longitude": -73.94999694824219,
    "dbpedia_uri": "http://dbpedia.org/resource/Jack_Prelutsky"
  },
  {
    "id": 175,
    "name": "Jack Rosenthal",
    "birth_year": 1931,
    "birthplace": "Manchester",
    "latitude": 53.47900009155273,
    "longitude": -2.245199918746948,
    "dbpedia_uri": "http://dbpedia.org/resource/Jack_Rosenthal"
  },
  {
    "id": 176,
    "name": "Jackie French",
    "birth_year": 1953,
    "birthplace": "New South Wales",
    "latitude": -32.0,
    "longitude": 147.0,
    "dbpedia_uri": "http://dbpedia.org/resource/Jackie_French"
  },
  {
    "id": 177,
    "name": "James Bamford",
    "birth_year": 1946,
    "birthplace": "Atlantic City, New Jersey",
    "latitude": 39.36249923706055,
    "longitude": -74.42500305175781,
    "dbpedia_uri": "http://dbpedia.org/resource/James_Bamford"
  },
  {
    "id": 178,
    "name": "James Ellroy",
    "birth_year": 1948,
    "birthplace": "Los Angeles",
    "latitude": 34.04999923706055,
    "longitude": -118.25,
    "dbpedia_uri": "http://dbpedia.org/resource/James_Ellroy"
  },
  {
    "id": 179,
    "name": "James Graham",
    "birth_year": 1982,
    "birthplace": "Mansfield",
    "latitude": 53.14444351196289,
    "longitude": -1.196388840675354,
    "dbpedia_uri": "http://dbpedia.org/resource/James_Graham_(playwright)"
  },
  {
    "id": 180,
    "name": "James Lee Barrett",
    "birth_year": 1929,
    "birthplace": "Charlotte, North Carolina",
    "latitude": 35.22722244262695,
    "longitude": -80.84305572509766,
    "dbpedia_uri": "http://dbpedia.org/resource/James_Lee_Barrett"
  },
  {
    "id": 181,
    "name": "James Rollins",
    "birth_year": 1961,
    "birthplace": "Chicago",
    "latitude": 41.88194274902344,
    "longitude": -87.62777709960938,
    "dbpedia_uri": "http://dbpedia.org/resource/James_Rollins"
  },
  {
    "id": 182,
    "name": "James Ursini",
    "birth_year": 1947,
    "birthplace": "Pittsburgh",
    "latitude": 40.43972396850586,
    "longitude": -79.98999786376953,
    "dbpedia_uri": "http://dbpedia.org/resource/James_Ursini"
  },
  {
    "id": 183,
    "name": "Jamie Brittain",
    "birth_year": 1985,
    "birthplace": "Scotland",
    "latitude": 55.95305633544922,
    "longitude": -3.188888788223267,
    "dbpedia_uri": "http://dbpedia.org/resource/Jamie_Brittain"
  },
  {
    "id": 184,
    "name": "Jan Mark",
    "birth_year": 1943,
    "birthplace": "Welwyn Garden City",
    "latitude": 51.80619812011719,
    "longitude": -0.1932000070810318,
    "dbpedia_uri": "http://dbpedia.org/resource/Jan_Mark"
  },
  {
    "id": 185,
    "name": "Jean-Marc Lofficier",
    "birth_year": 1954,
    "birthplace": "Toulon",
    "latitude": 43.12583160400391,
    "longitude": 5.93055534362793,
    "dbpedia_uri": "http://dbpedia.org/resource/Jean-Marc_Lofficier"
  },
  {
    "id": 186,
    "name": "Jean Ferris",
    "birth_year": 1939,
    "birthplace": "Kansas",
    "latitude": 38.45000076293945,
    "longitude": -96.53333282470703,
    "dbpedia_uri": "http://dbpedia.org/resource/Jean_Ferris"
  },
  {
    "id": 187,
    "name": "Jeff Sampson",
    "birth_year": 1982,
    "birthplace": "Nuremberg",
    "latitude": 49.45388793945312,
    "longitude": 11.07750034332275,
    "dbpedia_uri": "http://dbpedia.org/resource/Jeff_Sampson"
  },
  {
    "id": 188,
    "name": "Jennifer Brown",
    "birth_year": 1972,
    "birthplace": "Kansas City, Missouri",
    "latitude": 39.09972381591797,
    "longitude": -94.57833099365234,
    "dbpedia_uri": "http://dbpedia.org/resource/Jennifer_Brown_(author)"
  },
  {
    "id": 189,
    "name": "Jenny Han",
    "birth_year": 1980,
    "birthplace": "Richmond, Virginia",
    "latitude": 37.54083251953125,
    "longitude": -77.4366683959961,
    "dbpedia_uri": "http://dbpedia.org/resource/Jenny_Han"
  },
  {
    "id": 190,
    "name": "Jeremy Lloyd",
    "birth_year": 1930,
    "birthplace": "England",
    "latitude": 51.5,
    "longitude": -0.116666667163372,
    "dbpedia_uri": "http://dbpedia.org/resource/Jeremy_Lloyd"
  },
  {
    "id": 191,
    "name": "Jillian Lauren",
    "birth_year": 1973,
    "birthplace": "Livingston, New Jersey",
    "latitude": 40.78582763671875,
    "longitude": -74.3291015625,
    "dbpedia_uri": "http://dbpedia.org/resource/Jillian_Lauren"
  },
  {
    "id": 192,
    "name": "Joan Aiken",
    "birth_year": 1924,
    "birthplace": "Sussex",
    "latitude": 51.0,
    "longitude": 0.0,
    "dbpedia_uri": "http://dbpedia.org/resource/Joan_Aiken"
  },
  {
    "id": 193,
    "name": "Joan Lowery Nixon",
    "birth_year": 1927,
    "birthplace": "Los Angeles",
    "latitude": 34.04999923706055,
    "longitude": -118.25,
    "dbpedia_uri": "http://dbpedia.org/resource/Joan_Lowery_Nixon"
  },
  {
    "id": 194,
    "name": "Joe Abercrombie",
    "birth_year": 1974,
    "birthplace": "England",
    "latitude": 51.5,
    "longitude": -0.116666667163372,
    "dbpedia_uri": "http://dbpedia.org/resource/Joe_Abercrombie"
  },
  {
    "id": 195,
    "name": "John Ajvide Lindqvist",
    "birth_year": 1968,
    "birthplace": "Sweden",
    "latitude": 59.34999847412109,
    "longitude": 18.0666675567627,
    "dbpedia_uri": "http://dbpedia.org/resource/John_Ajvide_Lindqvist"
  },
  {
    "id": 196,
    "name": "John Galsworthy",
    "birth_year": 1867,
    "birthplace": "Kingston upon Thames",
    "latitude": 51.41030120849609,
    "longitude": -0.2994999885559082,
    "dbpedia_uri": "http://dbpedia.org/resource/John_Galsworthy"
  },
  {
    "id": 197,
    "name": "John Gay",
    "birth_year": 1924,
    "birthplace": "Whittier, California",
    "latitude": 33.96555709838867,
    "longitude": -118.0244445800781,
    "dbpedia_uri": "http://dbpedia.org/resource/John_Gay_(screenwriter)"
  },
  {
    "id": 198,
    "name": "John William Gordon",
    "birth_year": 1925,
    "birthplace": "County Durham",
    "latitude": 54.66666793823242,
    "longitude": -1.833333373069763,
    "dbpedia_uri": "http://dbpedia.org/resource/John_Gordon_(author)"
  },
  {
    "id": 199,
    "name": "John Green",
    "birth_year": 1977,
    "birthplace": "Indianapolis",
    "latitude": 39.76861190795898,
    "longitude": -86.1580581665039,
    "dbpedia_uri": "http://dbpedia.org/resource/John_Green"
  },
  {
    "id": 200,
    "name": "John Hersey",
    "birth_year": 1914,
    "birthplace": "Tianjin",
    "latitude": 39.13359832763672,
    "longitude": 117.2053985595703,
    "dbpedia_uri": "http://dbpedia.org/resource/John_Hersey"
  },
  {
    "id": 201,
    "name": "John Mortimer",
    "birth_year": 1923,
    "birthplace": "Hampstead",
    "latitude": 51.55410003662109,
    "longitude": -0.1744000017642975,
    "dbpedia_uri": "http://dbpedia.org/resource/John_Mortimer"
  },
  {
    "id": 202,
    "name": "John Thorn",
    "birth_year": 1947,
    "birthplace": "Stuttgart",
    "latitude": 48.77750015258789,
    "longitude": 9.180000305175781,
    "dbpedia_uri": "http://dbpedia.org/resource/John_Thorn_(baseball_historian)"
  },
  {
    "id": 203,
    "name": "Jonas Hassen Khemiri",
    "birth_year": 1978,
    "birthplace": "Stockholm",
    "latitude": 59.32944488525391,
    "longitude": 18.06861114501953,
    "dbpedia_uri": "http://dbpedia.org/resource/Jonas_Hassen_Khemiri"
  },
  {
    "id": 204,
    "name": "Jonathan Evison",
    "birth_year": 1968,
    "birthplace": "San Jose, California",
    "latitude": 37.19333267211914,
    "longitude": -121.8905563354492,
    "dbpedia_uri": "http://dbpedia.org/resource/Jonathan_Evison"
  },
  {
    "id": 205,
    "name": "Jordan Ifueko",
    "birth_year": 1993,
    "birthplace": "Southern California",
    "latitude": 34.0,
    "longitude": -117.0,
    "dbpedia_uri": "http://dbpedia.org/resource/Jordan_Ifueko"
  },
  {
    "id": 206,
    "name": "Joseph Roth",
    "birth_year": 1894,
    "birthplace": "Brody",
    "latitude": 50.0831413269043,
    "longitude": 25.14765167236328,
    "dbpedia_uri": "http://dbpedia.org/resource/Joseph_Roth"
  },
  {
    "id": 207,
    "name": "José Rivera",
    "birth_year": 1955,
    "birthplace": "San Juan, Puerto Rico",
    "latitude": 18.4063892364502,
    "longitude": -66.06388854980469,
    "dbpedia_uri": "http://dbpedia.org/resource/José_Rivera_(playwright)"
  },
  {
    "id": 208,
    "name": "Julia Donaldson",
    "birth_year": 1948,
    "birthplace": "London",
    "latitude": 51.50722122192383,
    "longitude": -0.1274999976158142,
    "dbpedia_uri": "http://dbpedia.org/resource/Julia_Donaldson"
  },
  {
    "id": 209,
    "name": "Julie Anne Peters",
    "birth_year": 1952,
    "birthplace": "Jamestown, New York",
    "latitude": 42.09555435180664,
    "longitude": -79.23860931396484,
    "dbpedia_uri": "http://dbpedia.org/resource/Julie_Anne_Peters"
  },
  {
    "id": 210,
    "name": "Juliet Ace",
    "birth_year": 1938,
    "birthplace": "Llanelli",
    "latitude": 51.68399810791016,
    "longitude": -4.163000106811523,
    "dbpedia_uri": "http://dbpedia.org/resource/Juliet_Ace"
  },
  {
    "id": 211,
    "name": "Junot Díaz",
    "birth_year": 1968,
    "birthplace": "Dominican Republic",
    "latitude": 18.45000076293945,
    "longitude": -69.93333435058594,
    "dbpedia_uri": "http://dbpedia.org/resource/Junot_Díaz"
  },
  {
    "id": 212,
    "name": "Kai Bird",
    "birth_year": 1951,
    "birthplace": "Eugene, Oregon",
    "latitude": 44.05638885498047,
    "longitude": -123.1175003051758,
    "dbpedia_uri": "http://dbpedia.org/resource/Kai_Bird"
  },
  {
    "id": 213,
    "name": "Karen Hesse",
    "birth_year": 1952,
    "birthplace": "Baltimore",
    "latitude": 39.28944396972656,
    "longitude": -76.61528015136719,
    "dbpedia_uri": "http://dbpedia.org/resource/Karen_Hesse"
  },
  {
    "id": 214,
    "name": "Karen Tei Yamashita",
    "birth_year": 1951,
    "birthplace": "Oakland, California",
    "latitude": 37.804443359375,
    "longitude": -122.2708358764648,
    "dbpedia_uri": "http://dbpedia.org/resource/Karen_Tei_Yamashita"
  },
  {
    "id": 215,
    "name": "Karin Fossum",
    "birth_year": 1954,
    "birthplace": "Vestfold",
    "latitude": 59.34999847412109,
    "longitude": 10.11999988555908,
    "dbpedia_uri": "http://dbpedia.org/resource/Karin_Fossum"
  },
  {
    "id": 216,
    "name": "Katherine Kurtz",
    "birth_year": 1944,
    "birthplace": "Coral Gables, Florida",
    "latitude": 25.71666717529297,
    "longitude": -80.27222442626953,
    "dbpedia_uri": "http://dbpedia.org/resource/Katherine_Kurtz"
  },
  {
    "id": 217,
    "name": "Katherine Mansfield",
    "birth_year": 1888,
    "birthplace": "Wellington",
    "latitude": -41.28888702392578,
    "longitude": 174.7772216796875,
    "dbpedia_uri": "http://dbpedia.org/resource/Katherine_Mansfield"
  },
  {
    "id": 218,
    "name": "Kathleen Flenniken",
    "birth_year": 1960,
    "birthplace": "Richland, Washington",
    "latitude": 46.23805618286133,
    "longitude": -119.23388671875,
    "dbpedia_uri": "http://dbpedia.org/resource/Kathleen_Flenniken"
  },
  {
    "id": 219,
    "name": "Kathleen Flinn",
    "birth_year": 1967,
    "birthplace": "Davison, Michigan",
    "latitude": 43.03111267089844,
    "longitude": -83.5169448852539,
    "dbpedia_uri": "http://dbpedia.org/resource/Kathleen_Flinn"
  },
  {
    "id": 220,
    "name": "Kathleen Winsor",
    "birth_year": 1915,
    "birthplace": "Olivia, Minnesota",
    "latitude": 44.77694320678711,
    "longitude": -94.99722290039062,
    "dbpedia_uri": "http://dbpedia.org/resource/Kathleen_Winsor"
  },
  {
    "id": 221,
    "name": "Kathy Tyers",
    "birth_year": 1952,
    "birthplace": "Long Beach, California",
    "latitude": 33.76833343505859,
    "longitude": -118.25,
    "dbpedia_uri": "http://dbpedia.org/resource/Kathy_Tyers"
  },
  {
    "id": 222,
    "name": "Keigo Higashino",
    "birth_year": 1958,
    "birthplace": "Ikuno-ku, Osaka",
    "latitude": 34.65277862548828,
    "longitude": 135.5394439697266,
    "dbpedia_uri": "http://dbpedia.org/resource/Keigo_Higashino"
  },
  {
    "id": 223,
    "name": "Keiichi Hasegawa",
    "birth_year": 1962,
    "birthplace": "Shizuoka Prefecture",
    "latitude": 34.91666793823242,
    "longitude": 138.3166656494141,
    "dbpedia_uri": "http://dbpedia.org/resource/Keiichi_Hasegawa"
  },
  {
    "id": 224,
    "name": "Kenzaburō Ōe",
    "birth_year": 1935,
    "birthplace": "Uchiko, Ehime",
    "latitude": 33.53333282470703,
    "longitude": 132.6499938964844,
    "dbpedia_uri": "http://dbpedia.org/resource/Kenzaburō_Ōe"
  },
  {
    "id": 225,
    "name": "Khaled Hosseini",
    "birth_year": 1965,
    "birthplace": "Kabul",
    "latitude": 34.52527618408203,
    "longitude": 69.17833709716797,
    "dbpedia_uri": "http://dbpedia.org/resource/Khaled_Hosseini"
  },
  {
    "id": 226,
    "name": "Kim Stanley Robinson",
    "birth_year": 1952,
    "birthplace": "Waukegan, Illinois",
    "latitude": 42.37027740478516,
    "longitude": -87.87110900878906,
    "dbpedia_uri": "http://dbpedia.org/resource/Kim_Stanley_Robinson"
  },
  {
    "id": 227,
    "name": "Kim Wilkins",
    "birth_year": 1966,
    "birthplace": "London",
    "latitude": 51.50722122192383,
    "longitude": -0.1274999976158142,
    "dbpedia_uri": "http://dbpedia.org/resource/Kim_Wilkins"
  },
  {
    "id": 228,
    "name": "Klas Östergren",
    "birth_year": 1955,
    "birthplace": "Stockholm",
    "latitude": 59.32944488525391,
    "longitude": 18.06861114501953,
    "dbpedia_uri": "http://dbpedia.org/resource/Klas_Östergren"
  },
  {
    "id": 229,
    "name": "Kristin Hannah",
    "birth_year": 1960,
    "birthplace": "California",
    "latitude": 35.49103546142578,
    "longitude": -119.3478546142578,
    "dbpedia_uri": "http://dbpedia.org/resource/Kristin_Hannah"
  },
  {
    "id": 230,
    "name": "L. J. Smith",
    "birth_year": 1958,
    "birthplace": "Fort Lauderdale, Florida",
    "latitude": 26.13333320617676,
    "longitude": -80.1500015258789,
    "dbpedia_uri": "http://dbpedia.org/resource/L._J._Smith_(author)"
  },
  {
    "id": 231,
    "name": "Lana Bastašić",
    "birth_year": 1986,
    "birthplace": "Zagreb",
    "latitude": 45.81305694580078,
    "longitude": 15.97749996185303,
    "dbpedia_uri": "http://dbpedia.org/resource/Lana_Bastašić"
  },
  {
    "id": 232,
    "name": "Lawrence Wright",
    "birth_year": 1947,
    "birthplace": "Oklahoma",
    "latitude": 35.0,
    "longitude": -98.0,
    "dbpedia_uri": "http://dbpedia.org/resource/Lawrence_Wright"
  },
  {
    "id": 233,
    "name": "Leo Tolstoy",
    "birth_year": 1828,
    "birthplace": "Yasnaya Polyana",
    "latitude": 54.07611083984375,
    "longitude": 37.5261116027832,
    "dbpedia_uri": "http://dbpedia.org/resource/Leo_Tolstoy"
  },
  {
    "id": 234,
    "name": "Patricia MacLachlan",
    "birth_year": 1938,
    "birthplace": "Cheyenne, Wyoming",
    "latitude": 41.13999938964844,
    "longitude": -104.8202743530273,
    "dbpedia_uri": "http://dbpedia.org/resource/Patricia_MacLachlan"
  },
  {
    "id": 235,
    "name": "Patricia Polacco",
    "birth_year": 1944,
    "birthplace": "Lansing, Michigan",
    "latitude": 42.71416854858398,
    "longitude": -84.55999755859375,
    "dbpedia_uri": "http://dbpedia.org/resource/Patricia_Polacco"
  },
  {
    "id": 236,
    "name": "Pattukottai Prabakar",
    "birth_year": 1958,
    "birthplace": "Tamil Nadu",
    "latitude": 11.0,
    "longitude": 79.0,
    "dbpedia_uri": "http://dbpedia.org/resource/Pattukkottai_Prabakar"
  },
  {
    "id": 237,
    "name": "Paul Schneider",
    "birth_year": 1923,
    "birthplace": "Passaic, New Jersey",
    "latitude": 40.85755157470703,
    "longitude": -74.12908935546875,
    "dbpedia_uri": "http://dbpedia.org/resource/Paul_Schneider_(writer)"
  },
  {
    "id": 238,
    "name": "Pavlos Matesis",
    "birth_year": 1933,
    "birthplace": "Lampeia",
    "latitude": 37.84999847412109,
    "longitude": 21.79999923706055,
    "dbpedia_uri": "http://dbpedia.org/resource/Pavlos_Matesis"
  },
  {
    "id": 239,
    "name": "Pearl S. Buck",
    "birth_year": 1892,
    "birthplace": "Hillsboro, West Virginia",
    "latitude": 38.13805389404297,
    "longitude": -80.2125015258789,
    "dbpedia_uri": "http://dbpedia.org/resource/Pearl_S._Buck"
  },
  {
    "id": 240,
    "name": "Penelope Lively",
    "birth_year": 1933,
    "birthplace": "Cairo",
    "latitude": 30.0444450378418,
    "longitude": 31.2358341217041,
    "dbpedia_uri": "http://dbpedia.org/resource/Penelope_Lively"
  },
  {
    "id": 241,
    "name": "Peter Crowther",
    "birth_year": 1949,
    "birthplace": "Leeds",
    "latitude": 53.79750061035156,
    "longitude": -1.543611168861389,
    "dbpedia_uri": "http://dbpedia.org/resource/Peter_Crowther"
  },
  {
    "id": 242,
    "name": "Peter Pezzelli",
    "birth_year": 1959,
    "birthplace": "Providence, Rhode Island",
    "latitude": 41.82361221313477,
    "longitude": -71.42222595214844,
    "dbpedia_uri": "http://dbpedia.org/resource/Peter_Pezzelli"
  },
  {
    "id": 243,
    "name": "Peter Robinson",
    "birth_year": 1950,
    "birthplace": "Armley",
    "latitude": 53.79809951782227,
    "longitude": -1.587200045585632,
    "dbpedia_uri": "http://dbpedia.org/resource/Peter_Robinson_(novelist)"
  },
  {
    "id": 244,
    "name": "Peter de Jonge",
    "birth_year": 1954,
    "birthplace": "Stamford, Connecticut",
    "latitude": 41.05277633666992,
    "longitude": -73.53888702392578,
    "dbpedia_uri": "http://dbpedia.org/resource/Peter_de_Jonge"
  },
  {
    "id": 245,
    "name": "Phil Rickman",
    "birth_year": 1950,
    "birthplace": "Lancashire",
    "latitude": 53.79999923706055,
    "longitude": -2.599999904632568,
    "dbpedia_uri": "http://dbpedia.org/resource/Phil_Rickman"
  },
  {
    "id": 246,
    "name": "Poul Anderson",
    "birth_year": 1926,
    "birthplace": "Bristol, Pennsylvania",
    "latitude": 40.10333251953125,
    "longitude": -74.85138702392578,
    "dbpedia_uri": "http://dbpedia.org/resource/Poul_Anderson"
  },
  {
    "id": 247,
    "name": "Pradeep Bashyal",
    "birth_year": 1991,
    "birthplace": "Lumbini Province",
    "latitude": 27.65920257568359,
    "longitude": 83.43841552734375,
    "dbpedia_uri": "http://dbpedia.org/resource/Pradeep_Bashyal"
  },
  {
    "id": 248,
    "name": "Rachel Cusk",
    "birth_year": 1967,
    "birthplace": "Saskatchewan",
    "latitude": 54.0,
    "longitude": -106.0,
    "dbpedia_uri": "http://dbpedia.org/resource/Rachel_Cusk"
  },
  {
    "id": 249,
    "name": "Ray Galton",
    "birth_year": 1930,
    "birthplace": "Paddington",
    "latitude": 51.5172004699707,
    "longitude": -0.1729999929666519,
    "dbpedia_uri": "http://dbpedia.org/resource/Ray_Galton"
  },
  {
    "id": 250,
    "name": "Reginald Hill",
    "birth_year": 1936,
    "birthplace": "West Hartlepool",
    "latitude": 54.68891906738281,
    "longitude": -1.224979996681213,
    "dbpedia_uri": "http://dbpedia.org/resource/Reginald_Hill"
  },
  {
    "id": 251,
    "name": "Rex Pickett",
    "birth_year": 1956,
    "birthplace": "Merced, California",
    "latitude": 37.29999923706055,
    "longitude": -120.4833297729492,
    "dbpedia_uri": "http://dbpedia.org/resource/Rex_Pickett"
  },
  {
    "id": 252,
    "name": "Rhonda Byrne",
    "birth_year": 1951,
    "birthplace": "Australia",
    "latitude": -35.30805587768555,
    "longitude": 149.1244506835938,
    "dbpedia_uri": "http://dbpedia.org/resource/Rhonda_Byrne"
  },
  {
    "id": 253,
    "name": "Richard Beard",
    "birth_year": 1967,
    "birthplace": "Swindon",
    "latitude": 51.56000137329102,
    "longitude": -1.779999971389771,
    "dbpedia_uri": "http://dbpedia.org/resource/Richard_Beard_(author)"
  },
  {
    "id": 254,
    "name": "Richard Platt",
    "birth_year": 1953,
    "birthplace": "Northumberland",
    "latitude": 55.16666793823242,
    "longitude": -2.0,
    "dbpedia_uri": "http://dbpedia.org/resource/Richard_Platt_(writer)"
  },
  {
    "id": 255,
    "name": "Richard Powers",
    "birth_year": 1957,
    "birthplace": "Evanston, Illinois",
    "latitude": 42.04639053344727,
    "longitude": -87.6947250366211,
    "dbpedia_uri": "http://dbpedia.org/resource/Richard_Powers"
  },
  {
    "id": 256,
    "name": "Richard V. Reeves",
    "birth_year": 1969,
    "birthplace": "Peterborough",
    "latitude": 52.56611251831055,
    "longitude": -0.2363888919353485,
    "dbpedia_uri": "http://dbpedia.org/resource/Richard_Reeves_(British_author)"
  },
  {
    "id": 257,
    "name": "Rick Shefchik",
    "birth_year": 1952,
    "birthplace": "Duluth, Minnesota",
    "latitude": 46.78327178955078,
    "longitude": -92.10657501220703,
    "dbpedia_uri": "http://dbpedia.org/resource/Rick_Shefchik"
  },
  {
    "id": 258,
    "name": "Rick Ungar",
    "birth_year": 1950,
    "birthplace": "Youngstown, Ohio",
    "latitude": 41.09999847412109,
    "longitude": -80.6500015258789,
    "dbpedia_uri": "http://dbpedia.org/resource/Rick_Ungar"
  },
  {
    "id": 259,
    "name": "Rob Thomas",
    "birth_year": 1965,
    "birthplace": "Sunnyside, Washington",
    "latitude": 46.31777954101562,
    "longitude": -119.9944458007812,
    "dbpedia_uri": "http://dbpedia.org/resource/Rob_Thomas_(writer)"
  },
  {
    "id": 260,
    "name": "Robert Irwin",
    "birth_year": 1946,
    "birthplace": "Guildford",
    "latitude": 51.23649978637695,
    "longitude": -0.5702999830245972,
    "dbpedia_uri": "http://dbpedia.org/resource/Robert_Irwin_(writer)"
  },
  {
    "id": 261,
    "name": "Robert K. Elder",
    "birth_year": 1976,
    "birthplace": "United States",
    "latitude": 38.88333511352539,
    "longitude": -77.01667022705078,
    "dbpedia_uri": "http://dbpedia.org/resource/Robert_K._Elder"
  },
  {
    "id": 262,
    "name": "Robert Louis Stevenson",
    "birth_year": 1850,
    "birthplace": "Edinburgh",
    "latitude": 55.95000076293945,
    "longitude": -3.183333396911621,
    "dbpedia_uri": "http://dbpedia.org/resource/Robert_Louis_Stevenson"
  },
  {
    "id": 263,
    "name": "Robert Sellers",
    "birth_year": 1965,
    "birthplace": "England",
    "latitude": 51.5,
    "longitude": -0.116666667163372,
    "dbpedia_uri": "http://dbpedia.org/resource/Robert_Sellers"
  },
  {
    "id": 264,
    "name": "Robert Tressell",
    "birth_year": 1870,
    "birthplace": "Dublin",
    "latitude": 53.34999847412109,
    "longitude": -6.26027774810791,
    "dbpedia_uri": "http://dbpedia.org/resource/Robert_Tressell"
  },
  {
    "id": 265,
    "name": "Robert Twigger",
    "birth_year": 1962,
    "birthplace": "Solihull",
    "latitude": 52.41299819946289,
    "longitude": -1.777999997138977,
    "dbpedia_uri": "http://dbpedia.org/resource/Robert_Twigger"
  },
  {
    "id": 266,
    "name": "Robie Harris",
    "birth_year": 1940,
    "birthplace": "Buffalo, New York",
    "latitude": 42.88639068603516,
    "longitude": -78.8780517578125,
    "dbpedia_uri": "http://dbpedia.org/resource/Robie_Harris"
  },
  {
    "id": 267,
    "name": "Robin Stevens",
    "birth_year": 1988,
    "birthplace": "California",
    "latitude": 35.49103546142578,
    "longitude": -119.3478546142578,
    "dbpedia_uri": "http://dbpedia.org/resource/Robin_Stevens_(author)"
  },
  {
    "id": 268,
    "name": "Robison Wells",
    "birth_year": 1978,
    "birthplace": "Utah",
    "latitude": 39.0,
    "longitude": -111.0,
    "dbpedia_uri": "http://dbpedia.org/resource/Robison_Wells"
  },
  {
    "id": 269,
    "name": "Robyn Scott",
    "birth_year": 1981,
    "birthplace": "United Kingdom",
    "latitude": 51.5,
    "longitude": -0.116666667163372,
    "dbpedia_uri": "http://dbpedia.org/resource/Robyn_Scott"
  },
  {
    "id": 270,
    "name": "Roddy Doyle",
    "birth_year": 1958,
    "birthplace": "Dublin",
    "latitude": 53.34999847412109,
    "longitude": -6.26027774810791,
    "dbpedia_uri": "http://dbpedia.org/resource/Roddy_Doyle"
  },
  {
    "id": 271,
    "name": "Rosamunde Scott Pilcher",
    "birth_year": 1924,
    "birthplace": "Lelant",
    "latitude": 50.18399810791016,
    "longitude": -5.440000057220459,
    "dbpedia_uri": "http://dbpedia.org/resource/Rosamunde_Pilcher"
  },
  {
    "id": 272,
    "name": "Rupi Kaur",
    "birth_year": 1992,
    "birthplace": "India",
    "latitude": 28.61388969421387,
    "longitude": 77.20833587646484,
    "dbpedia_uri": "http://dbpedia.org/resource/Rupi_Kaur"
  },
  {
    "id": 273,
    "name": "S. A. Cosby",
    "birth_year": 1973,
    "birthplace": "Newport News, Virginia",
    "latitude": 37.07083511352539,
    "longitude": -76.48444366455078,
    "dbpedia_uri": "http://dbpedia.org/resource/S._A._Cosby"
  },
  {
    "id": 274,
    "name": "Sally Beauman",
    "birth_year": 1944,
    "birthplace": "Totnes",
    "latitude": 50.43199920654297,
    "longitude": -3.684000015258789,
    "dbpedia_uri": "http://dbpedia.org/resource/Sally_Beauman"
  },
  {
    "id": 275,
    "name": "Sam Bobrick",
    "birth_year": 1932,
    "birthplace": "Chicago",
    "latitude": 41.88194274902344,
    "longitude": -87.62777709960938,
    "dbpedia_uri": "http://dbpedia.org/resource/Sam_Bobrick"
  },
  {
    "id": 276,
    "name": "Samuel Taylor Coleridge",
    "birth_year": 1772,
    "birthplace": "Ottery St Mary",
    "latitude": 50.75199890136719,
    "longitude": -3.279000043869019,
    "dbpedia_uri": "http://dbpedia.org/resource/Samuel_Taylor_Coleridge"
  },
  {
    "id": 277,
    "name": "Sara Douglass",
    "birth_year": 1957,
    "birthplace": "South Australia",
    "latitude": -30.0,
    "longitude": 135.0,
    "dbpedia_uri": "http://dbpedia.org/resource/Sara_Douglass"
  },
  {
    "id": 278,
    "name": "Sarah Dessen",
    "birth_year": 1970,
    "birthplace": "Evanston, Illinois",
    "latitude": 42.04639053344727,
    "longitude": -87.6947250366211,
    "dbpedia_uri": "http://dbpedia.org/resource/Sarah_Dessen"
  },
  {
    "id": 279,
    "name": "Satyam Sankaramanchi",
    "birth_year": 1937,
    "birthplace": "Amaravathi, Palnadu district",
    "latitude": 16.57299995422363,
    "longitude": 80.35800170898438,
    "dbpedia_uri": "http://dbpedia.org/resource/Satyam_Sankaramanchi"
  },
  {
    "id": 280,
    "name": "Saul Bellow",
    "birth_year": 1915,
    "birthplace": "Lachine, Quebec",
    "latitude": 45.43305587768555,
    "longitude": -73.68083190917969,
    "dbpedia_uri": "http://dbpedia.org/resource/Saul_Bellow"
  },
  {
    "id": 281,
    "name": "Scott Oden",
    "birth_year": 1967,
    "birthplace": "Columbus, Indiana",
    "latitude": 39.21389007568359,
    "longitude": -85.9111099243164,
    "dbpedia_uri": "http://dbpedia.org/resource/Scott_Oden"
  },
  {
    "id": 282,
    "name": "Scott Westerfeld",
    "birth_year": 1963,
    "birthplace": "Dallas",
    "latitude": 32.77916717529297,
    "longitude": -96.80889129638672,
    "dbpedia_uri": "http://dbpedia.org/resource/Scott_Westerfeld"
  },
  {
    "id": 283,
    "name": "Serena B. Miller",
    "birth_year": 1950,
    "birthplace": "Portsmouth, Ohio",
    "latitude": 38.73944473266602,
    "longitude": -82.94444274902344,
    "dbpedia_uri": "http://dbpedia.org/resource/Serena_B._Miller"
  },
  {
    "id": 284,
    "name": "Shane Claiborne",
    "birth_year": 1975,
    "birthplace": "East Tennessee",
    "latitude": 35.90000152587891,
    "longitude": -84.0999984741211,
    "dbpedia_uri": "http://dbpedia.org/resource/Shane_Claiborne"
  },
  {
    "id": 285,
    "name": "Shantanu Gupta",
    "birth_year": 1979,
    "birthplace": "India",
    "latitude": 28.61388969421387,
    "longitude": 77.20833587646484,
    "dbpedia_uri": "http://dbpedia.org/resource/Shantanu_Gupta"
  },
  {
    "id": 286,
    "name": "Sharon M. Draper",
    "birth_year": 1948,
    "birthplace": "Ohio",
    "latitude": 40.0,
    "longitude": -83.0,
    "dbpedia_uri": "http://dbpedia.org/resource/Sharon_M._Draper"
  },
  {
    "id": 287,
    "name": "Shobha De",
    "birth_year": 1948,
    "birthplace": "Maharashtra",
    "latitude": 18.96999931335449,
    "longitude": 72.81999969482422,
    "dbpedia_uri": "http://dbpedia.org/resource/Shobhaa_De"
  },
  {
    "id": 288,
    "name": "Sidney Howard",
    "birth_year": 1891,
    "birthplace": "Oakland, California",
    "latitude": 37.804443359375,
    "longitude": -122.2708358764648,
    "dbpedia_uri": "http://dbpedia.org/resource/Sidney_Howard"
  },
  {
    "id": 289,
    "name": "Simon Beckett",
    "birth_year": 1960,
    "birthplace": "Sheffield",
    "latitude": 53.38083267211914,
    "longitude": -1.470277786254883,
    "dbpedia_uri": "http://dbpedia.org/resource/Simon_Beckett"
  },
  {
    "id": 290,
    "name": "Simon R. Green",
    "birth_year": 1955,
    "birthplace": "Wiltshire",
    "latitude": 51.29999923706055,
    "longitude": -1.899999976158142,
    "dbpedia_uri": "http://dbpedia.org/resource/Simon_R._Green"
  },
  {
    "id": 291,
    "name": "Stanisław Lem",
    "birth_year": 1921,
    "birthplace": "Lviv",
    "latitude": 49.84249877929688,
    "longitude": 24.03222274780273,
    "dbpedia_uri": "http://dbpedia.org/resource/Stanisław_Lem"
  },
  {
    "id": 292,
    "name": "Steve Marmel",
    "birth_year": 1964,
    "birthplace": "Lincolnwood, Illinois",
    "latitude": 42.00527954101562,
    "longitude": -87.73416900634766,
    "dbpedia_uri": "http://dbpedia.org/resource/Steve_Marmel"
  },
  {
    "id": 293,
    "name": "Steven Erikson",
    "birth_year": 1959,
    "birthplace": "Ontario",
    "latitude": 49.25,
    "longitude": -84.5,
    "dbpedia_uri": "http://dbpedia.org/resource/Steven_Erikson"
  },
  {
    "id": 294,
    "name": "Steven Gould",
    "birth_year": 1955,
    "birthplace": "Arizona",
    "latitude": 35.0,
    "longitude": -112.0,
    "dbpedia_uri": "http://dbpedia.org/resource/Steven_Gould"
  },
  {
    "id": 295,
    "name": "सुमृत शाही",
    "birth_year": 1993,
    "birthplace": "Chandigarh",
    "latitude": 30.75,
    "longitude": 76.77999877929688,
    "dbpedia_uri": "http://dbpedia.org/resource/Sumrit_Shahi"
  },
  {
    "id": 296,
    "name": "Susan Glaspell",
    "birth_year": 1876,
    "birthplace": "Davenport, Iowa",
    "latitude": 41.54305648803711,
    "longitude": -90.59083557128906,
    "dbpedia_uri": "http://dbpedia.org/resource/Susan_Glaspell"
  },
  {
    "id": 297,
    "name": "Susan Juby",
    "birth_year": 1969,
    "birthplace": "Ponoka, Alberta",
    "latitude": 52.67555618286133,
    "longitude": -113.5802764892578,
    "dbpedia_uri": "http://dbpedia.org/resource/Susan_Juby"
  },
  {
    "id": 298,
    "name": "Sven Nordqvist",
    "birth_year": 1946,
    "birthplace": "Sweden",
    "latitude": 59.34999847412109,
    "longitude": 18.0666675567627,
    "dbpedia_uri": "http://dbpedia.org/resource/Sven_Nordqvist"
  },
  {
    "id": 299,
    "name": "Tad Mosel",
    "birth_year": 1922,
    "birthplace": "Steubenville, Ohio",
    "latitude": 40.36527633666992,
    "longitude": -80.63333129882812,
    "dbpedia_uri": "http://dbpedia.org/resource/Tad_Mosel"
  },
  {
    "id": 300,
    "name": "Tao Lin",
    "birth_year": 1983,
    "birthplace": "Alexandria, Virginia",
    "latitude": 38.82027816772461,
    "longitude": -77.05027770996094,
    "dbpedia_uri": "http://dbpedia.org/resource/Tao_Lin"
  },
  {
    "id": 301,
    "name": "Terry Brooks",
    "birth_year": 1944,
    "birthplace": "Sterling, Illinois",
    "latitude": 41.79222106933594,
    "longitude": -89.72666931152344,
    "dbpedia_uri": "http://dbpedia.org/resource/Terry_Brooks"
  },
  {
    "id": 302,
    "name": "Terry Goodkind",
    "birth_year": 1948,
    "birthplace": "Omaha, Nebraska",
    "latitude": 41.2599983215332,
    "longitude": -96.05000305175781,
    "dbpedia_uri": "http://dbpedia.org/resource/Terry_Goodkind"
  },
  {
    "id": 303,
    "name": "Tess Gerritsen",
    "birth_year": 1953,
    "birthplace": "San Diego",
    "latitude": 32.71500015258789,
    "longitude": -117.1624984741211,
    "dbpedia_uri": "http://dbpedia.org/resource/Tess_Gerritsen"
  },
  {
    "id": 304,
    "name": "Thomas C. Lea III",
    "birth_year": 1907,
    "birthplace": "El Paso, Texas",
    "latitude": 31.7591667175293,
    "longitude": -106.4886093139648,
    "dbpedia_uri": "http://dbpedia.org/resource/Thomas_C._Lea_III"
  },
  {
    "id": 305,
    "name": "Tom Bissell",
    "birth_year": 1974,
    "birthplace": "Escanaba, Michigan",
    "latitude": 45.74583435058594,
    "longitude": -87.06416320800781,
    "dbpedia_uri": "http://dbpedia.org/resource/Tom_Bissell"
  },
  {
    "id": 306,
    "name": "Tom W. Blackburn",
    "birth_year": 1913,
    "birthplace": "Raton, New Mexico",
    "latitude": 36.87361145019531,
    "longitude": -104.4400024414062,
    "dbpedia_uri": "http://dbpedia.org/resource/Tom_W._Blackburn"
  },
  {
    "id": 307,
    "name": "Tony Barwick",
    "birth_year": 1934,
    "birthplace": "St Pancras, London",
    "latitude": 51.52619934082031,
    "longitude": -0.1177999973297119,
    "dbpedia_uri": "http://dbpedia.org/resource/Tony_Barwick"
  },
  {
    "id": 308,
    "name": "Tony Horwitz",
    "birth_year": 1958,
    "birthplace": "Washington, D.C.",
    "latitude": 38.90472412109375,
    "longitude": -77.01638793945312,
    "dbpedia_uri": "http://dbpedia.org/resource/Tony_Horwitz"
  },
  {
    "id": 309,
    "name": "Tosca Lee",
    "birth_year": 1969,
    "birthplace": "Roanoke, Virginia",
    "latitude": 37.27055740356445,
    "longitude": -79.94249725341797,
    "dbpedia_uri": "http://dbpedia.org/resource/Tosca_Lee"
  },
  {
    "id": 310,
    "name": "Tucker Reed",
    "birth_year": 1989,
    "birthplace": "Los Gatos, California",
    "latitude": 37.23611068725586,
    "longitude": -121.961669921875,
    "dbpedia_uri": "http://dbpedia.org/resource/Tucker_Reed"
  },
  {
    "id": 311,
    "name": "Ukamaka Olisakwe",
    "birth_year": 1982,
    "birthplace": "Kano State",
    "latitude": 11.5,
    "longitude": 8.5,
    "dbpedia_uri": "http://dbpedia.org/resource/Ukamaka_Olisakwe"
  },
  {
    "id": 312,
    "name": "Victor Hugo",
    "birth_year": 1802,
    "birthplace": "Besançon",
    "latitude": 47.2400016784668,
    "longitude": 6.019999980926514,
    "dbpedia_uri": "http://dbpedia.org/resource/Victor_Hugo"
  },
  {
    "id": 313,
    "name": "W. G. Sebald",
    "birth_year": 1944,
    "birthplace": "Bavaria",
    "latitude": 49.0,
    "longitude": 11.5,
    "dbpedia_uri": "http://dbpedia.org/resource/W._G._Sebald"
  },
  {
    "id": 314,
    "name": "W. O. Mitchell",
    "birth_year": 1914,
    "birthplace": "Saskatchewan",
    "latitude": 54.0,
    "longitude": -106.0,
    "dbpedia_uri": "http://dbpedia.org/resource/W._O._Mitchell"
  },
  {
    "id": 315,
    "name": "Walt Whitman",
    "birth_year": 1819,
    "birthplace": "Huntington, New York",
    "latitude": 40.86000061035156,
    "longitude": -73.35221862792969,
    "dbpedia_uri": "http://dbpedia.org/resource/Walt_Whitman"
  },
  {
    "id": 316,
    "name": "Walter Scott",
    "birth_year": 1771,
    "birthplace": "Edinburgh",
    "latitude": 55.95000076293945,
    "longitude": -3.183333396911621,
    "dbpedia_uri": "http://dbpedia.org/resource/Walter_Scott"
  },
  {
    "id": 317,
    "name": "Washington Irving",
    "birth_year": 1783,
    "birthplace": "New York (state)",
    "latitude": 43.0,
    "longitude": -76.0,
    "dbpedia_uri": "http://dbpedia.org/resource/Washington_Irving"
  },
  {
    "id": 318,
    "name": "Will Self",
    "birth_year": 1961,
    "birthplace": "London",
    "latitude": 51.50722122192383,
    "longitude": -0.1274999976158142,
    "dbpedia_uri": "http://dbpedia.org/resource/Will_Self"
  },
  {
    "id": 319,
    "name": "Willa Cather",
    "birth_year": 1873,
    "birthplace": "Gore, Virginia",
    "latitude": 39.26388931274414,
    "longitude": -78.33194732666016,
    "dbpedia_uri": "http://dbpedia.org/resource/Willa_Cather"
  },
  {
    "id": 320,
    "name": "William Dalrymple",
    "birth_year": 1965,
    "birthplace": "Edinburgh",
    "latitude": 55.95000076293945,
    "longitude": -3.183333396911621,
    "dbpedia_uri": "http://dbpedia.org/resource/William_Dalrymple"
  },
  {
    "id": 321,
    "name": "William Horwood",
    "birth_year": 1944,
    "birthplace": "Oxford",
    "latitude": 51.75194549560547,
    "longitude": -1.257777810096741,
    "dbpedia_uri": "http://dbpedia.org/resource/William_Horwood_(novelist)"
  },
  {
    "id": 322,
    "name": "William Trevor",
    "birth_year": 1928,
    "birthplace": "Mitchelstown",
    "latitude": 52.26559829711914,
    "longitude": -8.26990032196045,
    "dbpedia_uri": "http://dbpedia.org/resource/William_Trevor"
  },
  {
    "id": 323,
    "name": "Ying Chang Compestine",
    "birth_year": 1963,
    "birthplace": "Wuhan",
    "latitude": 30.59339904785156,
    "longitude": 114.3046035766602,
    "dbpedia_uri": "http://dbpedia.org/resource/Ying_Chang_Compestine"
  },
  {
    "id": 324,
    "name": "Zee Edgell",
    "birth_year": 1940,
    "birthplace": "Belize City",
    "latitude": 17.49861145019531,
    "longitude": -88.18861389160156,
    "dbpedia_uri": "http://dbpedia.org/resource/Zee_Edgell"
  },
  {
    "id": 325,
    "name": "Zibby Oneal",
    "birth_year": 1934,
    "birthplace": "Omaha, Nebraska",
    "latitude": 41.25860977172852,
    "longitude": -96.05000305175781,
    "dbpedia_uri": "http://dbpedia.org/resource/Zibby_Oneal"
  },
  {
    "id": 326,
    "name": "Åsne Guldahl Seierstad",
    "birth_year": 1970,
    "birthplace": "Oslo",
    "latitude": 59.91333389282227,
    "longitude": 10.73888874053955,
    "dbpedia_uri": "http://dbpedia.org/resource/Åsne_Seierstad"
  },
  {
    "id": 327,
    "name": "Weird AlYankovic",
    "birth_year": 1959,
    "birthplace": "Downey, California",
    "latitude": 33.93805694580078,
    "longitude": -118.1308364868164,
    "dbpedia_uri": "http://dbpedia.org/resource/%22Weird_Al%22_Yankovic"
  },
  {
    "id": 328,
    "name": "A. N. Wilson",
    "birth_year": 1950,
    "birthplace": "Staffordshire",
    "latitude": 52.80694580078125,
    "longitude": -2.116111040115356,
    "dbpedia_uri": "http://dbpedia.org/resource/A._N._Wilson"
  },
  {
    "id": 329,
    "name": "Abhijit Banerjee",
    "birth_year": 1961,
    "birthplace": "Maharashtra",
    "latitude": 18.96999931335449,
    "longitude": 72.81999969482422,
    "dbpedia_uri": "http://dbpedia.org/resource/Abhijit_Banerjee"
  },
  {
    "id": 330,
    "name": "Adam Reed",
    "birth_year": 1970,
    "birthplace": "Asheville, North Carolina",
    "latitude": 35.59555435180664,
    "longitude": -82.55194091796875,
    "dbpedia_uri": "http://dbpedia.org/resource/Adam_Reed"
  },
  {
    "id": 331,
    "name": "Adam Smith",
    "birth_year": 1723,
    "birthplace": "Fife",
    "latitude": 56.25,
    "longitude": -3.200000047683716,
    "dbpedia_uri": "http://dbpedia.org/resource/Adam_Smith"
  },
  {
    "id": 332,
    "name": "Adam Winkler",
    "birth_year": 1967,
    "birthplace": "Los Angeles",
    "latitude": 34.04999923706055,
    "longitude": -118.25,
    "dbpedia_uri": "http://dbpedia.org/resource/Adam_Winkler"
  },
  {
    "id": 333,
    "name": "Adolf Hitler",
    "birth_year": 1889,
    "birthplace": "Braunau am Inn",
    "latitude": 48.25833511352539,
    "longitude": 13.03499984741211,
    "dbpedia_uri": "http://dbpedia.org/resource/Adolf_Hitler"
  },
  {
    "id": 334,
    "name": "Adrian Edmondson",
    "birth_year": 1957,
    "birthplace": "Bradford",
    "latitude": 53.79999923706055,
    "longitude": -1.75,
    "dbpedia_uri": "http://dbpedia.org/resource/Adrian_Edmondson"
  },
  {
    "id": 335,
    "name": "Affion Crockett",
    "birth_year": 1974,
    "birthplace": "North Carolina",
    "latitude": 36.0,
    "longitude": -80.0,
    "dbpedia_uri": "http://dbpedia.org/resource/Affion_Crockett"
  },
  {
    "id": 336,
    "name": "Akala",
    "birth_year": 1983,
    "birthplace": "Crawley",
    "latitude": 51.10916519165039,
    "longitude": -0.1872222274541855,
    "dbpedia_uri": "http://dbpedia.org/resource/Akala_(rapper)"
  },
  {
    "id": 337,
    "name": "Alan Bleasdale",
    "birth_year": 1946,
    "birthplace": "Liverpool",
    "latitude": 53.40000152587891,
    "longitude": -2.983333349227905,
    "dbpedia_uri": "http://dbpedia.org/resource/Alan_Bleasdale"
  },
  {
    "id": 338,
    "name": "Alan Emtage",
    "birth_year": 1964,
    "birthplace": "Bridgetown",
    "latitude": 13.09694480895996,
    "longitude": -59.61305618286133,
    "dbpedia_uri": "http://dbpedia.org/resource/Alan_Emtage"
  },
  {
    "id": 339,
    "name": "Aleksandr Rogozhkin",
    "birth_year": 1949,
    "birthplace": "Saint Petersburg",
    "latitude": 59.9375,
    "longitude": 30.3086109161377,
    "dbpedia_uri": "http://dbpedia.org/resource/Aleksandr_Rogozhkin"
  },
  {
    "id": 340,
    "name": "Alessandro Manzoni",
    "birth_year": 1785,
    "birthplace": "Milan",
    "latitude": 45.46694564819336,
    "longitude": 9.1899995803833,
    "dbpedia_uri": "http://dbpedia.org/resource/Alessandro_Manzoni"
  },
  {
    "id": 341,
    "name": "Alex Garland",
    "birth_year": 1970,
    "birthplace": "England",
    "latitude": 51.5,
    "longitude": -0.116666667163372,
    "dbpedia_uri": "http://dbpedia.org/resource/Alex_Garland"
  },
  {
    "id": 342,
    "name": "Alf Brustellin",
    "birth_year": 1940,
    "birthplace": "Nazi Germany",
    "latitude": 52.51111221313477,
    "longitude": 13.37972259521484,
    "dbpedia_uri": "http://dbpedia.org/resource/Alf_Brustellin"
  },
  {
    "id": 343,
    "name": "Alfredo Véa Jr.",
    "birth_year": 1950,
    "birthplace": "Arizona",
    "latitude": 35.0,
    "longitude": -112.0,
    "dbpedia_uri": "http://dbpedia.org/resource/Alfredo_Véa_Jr."
  },
  {
    "id": 344,
    "name": "Amir Taaki",
    "birth_year": 1988,
    "birthplace": "London",
    "latitude": 51.50722122192383,
    "longitude": -0.1274999976158142,
    "dbpedia_uri": "http://dbpedia.org/resource/Amir_Taaki"
  },
  {
    "id": 345,
    "name": "Amy Goodman",
    "birth_year": 1957,
    "birthplace": "Bay Shore, New York",
    "latitude": 40.72972106933594,
    "longitude": -73.25360870361328,
    "dbpedia_uri": "http://dbpedia.org/resource/Amy_Goodman"
  },
  {
    "id": 346,
    "name": "Amy McKenzie",
    "birth_year": 1959,
    "birthplace": "Appleton, Wisconsin",
    "latitude": 44.26666641235352,
    "longitude": -88.4000015258789,
    "dbpedia_uri": "http://dbpedia.org/resource/Amy_McKenzie"
  },
  {
    "id": 347,
    "name": "Amy Thomson",
    "birth_year": 1958,
    "birthplace": "Florida",
    "latitude": 28.0,
    "longitude": -82.0,
    "dbpedia_uri": "http://dbpedia.org/resource/Amy_Thomson"
  },
  {
    "id": 348,
    "name": "Anand Ranga",
    "birth_year": 1975,
    "birthplace": "Andhra Pradesh",
    "latitude": 16.51000022888184,
    "longitude": 80.5199966430664,
    "dbpedia_uri": "http://dbpedia.org/resource/Anand_Ranga"
  },
  {
    "id": 349,
    "name": "Anders Hejlsberg",
    "birth_year": 1960,
    "birthplace": "Copenhagen",
    "latitude": 55.67610931396484,
    "longitude": 12.56833362579346,
    "dbpedia_uri": "http://dbpedia.org/resource/Anders_Hejlsberg"
  },
  {
    "id": 350,
    "name": "Andrew Marr",
    "birth_year": 1959,
    "birthplace": "Glasgow",
    "latitude": 55.86111068725586,
    "longitude": -4.25,
    "dbpedia_uri": "http://dbpedia.org/resource/Andrew_Marr"
  },
  {
    "id": 351,
    "name": "André Cayatte",
    "birth_year": 1909,
    "birthplace": "Aude",
    "latitude": 43.08333206176758,
    "longitude": 2.416666746139526,
    "dbpedia_uri": "http://dbpedia.org/resource/André_Cayatte"
  },
  {
    "id": 352,
    "name": "Andy Borowitz",
    "birth_year": 1958,
    "birthplace": "Shaker Heights, Ohio",
    "latitude": 41.47638702392578,
    "longitude": -81.55166625976562,
    "dbpedia_uri": "http://dbpedia.org/resource/Andy_Borowitz"
  },
  {
    "id": 353,
    "name": "Angela Davis",
    "birth_year": 1944,
    "birthplace": "Birmingham, Alabama",
    "latitude": 33.51750183105469,
    "longitude": -86.8094482421875,
    "dbpedia_uri": "http://dbpedia.org/resource/Angela_Davis"
  },
  {
    "id": 354,
    "name": "Angela Robinson",
    "birth_year": 1971,
    "birthplace": "Chicago",
    "latitude": 41.88194274902344,
    "longitude": -87.62777709960938,
    "dbpedia_uri": "http://dbpedia.org/resource/Angela_Robinson_(filmmaker)"
  },
  {
    "id": 355,
    "name": "Angela Webber",
    "birth_year": 1955,
    "birthplace": "New South Wales",
    "latitude": -32.0,
    "longitude": 147.0,
    "dbpedia_uri": "http://dbpedia.org/resource/Angela_Webber"
  },
  {
    "id": 356,
    "name": "Anna Mae Yu Lamentillo",
    "birth_year": 1991,
    "birthplace": "Philippines",
    "latitude": 13.0,
    "longitude": 122.0,
    "dbpedia_uri": "http://dbpedia.org/resource/Anna_Mae_Yu_Lamentillo"
  },
  {
    "id": 357,
    "name": "Anne Michaels",
    "birth_year": 1958,
    "birthplace": "Toronto",
    "latitude": 43.65250015258789,
    "longitude": -79.38166809082031,
    "dbpedia_uri": "http://dbpedia.org/resource/Anne_Michaels"
  },
  {
    "id": 358,
    "name": "Antonio Campos",
    "birth_year": 1983,
    "birthplace": "New York (state)",
    "latitude": 43.0,
    "longitude": -76.0,
    "dbpedia_uri": "http://dbpedia.org/resource/Antonio_Campos_(director)"
  },
  {
    "id": 359,
    "name": "Arunabh Kumar",
    "birth_year": 1982,
    "birthplace": "Muzaffarpur",
    "latitude": 26.12249946594238,
    "longitude": 85.39055633544922,
    "dbpedia_uri": "http://dbpedia.org/resource/Arunabh_Kumar"
  },
  {
    "id": 360,
    "name": "Aschlin Ditta",
    "birth_year": 1968,
    "birthplace": "London",
    "latitude": 51.50722122192383,
    "longitude": -0.1274999976158142,
    "dbpedia_uri": "http://dbpedia.org/resource/Aschlin_Ditta"
  },
  {
    "id": 361,
    "name": "Ash Avildsen",
    "birth_year": 1981,
    "birthplace": "United States",
    "latitude": 38.88333511352539,
    "longitude": -77.01667022705078,
    "dbpedia_uri": "http://dbpedia.org/resource/Ash_Avildsen"
  },
  {
    "id": 362,
    "name": "Ayman Otoom",
    "birth_year": 1972,
    "birthplace": "Jordan",
    "latitude": 31.95000076293945,
    "longitude": 35.93333435058594,
    "dbpedia_uri": "http://dbpedia.org/resource/Ayman_Otoom"
  },
  {
    "id": 363,
    "name": "Barbara Hall",
    "birth_year": 1960,
    "birthplace": "Chatham, Virginia",
    "latitude": 36.82555389404297,
    "longitude": -79.39749908447266,
    "dbpedia_uri": "http://dbpedia.org/resource/Barbara_Hall_(TV_producer)"
  },
  {
    "id": 364,
    "name": "Barry Blitzer",
    "birth_year": 1929,
    "birthplace": "United States",
    "latitude": 38.88333511352539,
    "longitude": -77.01667022705078,
    "dbpedia_uri": "http://dbpedia.org/resource/Barry_Blitzer"
  },
  {
    "id": 365,
    "name": "Barry Cryer",
    "birth_year": 1935,
    "birthplace": "Leeds",
    "latitude": 53.79750061035156,
    "longitude": -1.543611168861389,
    "dbpedia_uri": "http://dbpedia.org/resource/Barry_Cryer"
  },
  {
    "id": 366,
    "name": "bell hooks",
    "birth_year": 1952,
    "birthplace": "Hopkinsville, Kentucky",
    "latitude": 36.85472106933594,
    "longitude": -87.4888916015625,
    "dbpedia_uri": "http://dbpedia.org/resource/Bell_hooks"
  },
  {
    "id": 367,
    "name": "Benjamin Faulks",
    "birth_year": 1979,
    "birthplace": "Cornwall",
    "latitude": 50.40000152587891,
    "longitude": -4.900000095367432,
    "dbpedia_uri": "http://dbpedia.org/resource/Ben_Faulks"
  },
  {
    "id": 368,
    "name": "Ben Watt",
    "birth_year": 1962,
    "birthplace": "Marylebone",
    "latitude": 51.5177001953125,
    "longitude": -0.1469999998807907,
    "dbpedia_uri": "http://dbpedia.org/resource/Ben_Watt"
  },
  {
    "id": 369,
    "name": "Benedict Allen",
    "birth_year": 1960,
    "birthplace": "Cheshire",
    "latitude": 53.16666793823242,
    "longitude": -2.583333253860474,
    "dbpedia_uri": "http://dbpedia.org/resource/Benedict_Allen"
  },
  {
    "id": 370,
    "name": "Bernard-Henri Lévy",
    "birth_year": 1948,
    "birthplace": "Béni Saf",
    "latitude": 35.29999923706055,
    "longitude": -1.383333325386047,
    "dbpedia_uri": "http://dbpedia.org/resource/Bernard-Henri_Lévy"
  },
  {
    "id": 371,
    "name": "Bernie Orenstein",
    "birth_year": 1931,
    "birthplace": "Toronto",
    "latitude": 43.65250015258789,
    "longitude": -79.38166809082031,
    "dbpedia_uri": "http://dbpedia.org/resource/Bernie_Orenstein"
  },
  {
    "id": 372,
    "name": "Bess Taffel",
    "birth_year": 1913,
    "birthplace": "New York (state)",
    "latitude": 43.0,
    "longitude": -76.0,
    "dbpedia_uri": "http://dbpedia.org/resource/Bess_Taffel"
  },
  {
    "id": 373,
    "name": "Bill Gates",
    "birth_year": 1955,
    "birthplace": "Seattle",
    "latitude": 39.82805633544922,
    "longitude": -122.3300018310547,
    "dbpedia_uri": "http://dbpedia.org/resource/Bill_Gates"
  },
  {
    "id": 374,
    "name": "Billy Van Zandt",
    "birth_year": 1957,
    "birthplace": "Red Bank, New Jersey",
    "latitude": 40.34872055053711,
    "longitude": -74.0665283203125,
    "dbpedia_uri": "http://dbpedia.org/resource/Billy_Van_Zandt"
  },
  {
    "id": 375,
    "name": "Biswapati Sarkar",
    "birth_year": 1988,
    "birthplace": "Rourkela",
    "latitude": 22.24916648864746,
    "longitude": 84.88277435302734,
    "dbpedia_uri": "http://dbpedia.org/resource/Biswapati_Sarkar"
  },
  {
    "id": 376,
    "name": "Blair Underwood",
    "birth_year": 1964,
    "birthplace": "Tacoma, Washington",
    "latitude": 47.24583435058594,
    "longitude": -122.4594421386719,
    "dbpedia_uri": "http://dbpedia.org/resource/Blair_Underwood"
  },
  {
    "id": 377,
    "name": "Blake Morrison",
    "birth_year": 1950,
    "birthplace": "West Riding of Yorkshire",
    "latitude": 53.83330154418945,
    "longitude": -1.765400052070618,
    "dbpedia_uri": "http://dbpedia.org/resource/Blake_Morrison"
  },
  {
    "id": 378,
    "name": "Boaz Dvir",
    "birth_year": 1967,
    "birthplace": "Petah Tikva",
    "latitude": 32.08889007568359,
    "longitude": 34.88639068603516,
    "dbpedia_uri": "http://dbpedia.org/resource/Boaz_Dvir"
  },
  {
    "id": 379,
    "name": "Bob Boden",
    "birth_year": 1959,
    "birthplace": "New York (state)",
    "latitude": 43.0,
    "longitude": -76.0,
    "dbpedia_uri": "http://dbpedia.org/resource/Bob_Boden"
  },
  {
    "id": 380,
    "name": "Bob Brunner",
    "birth_year": 1934,
    "birthplace": "New York (state)",
    "latitude": 43.0,
    "longitude": -76.0,
    "dbpedia_uri": "http://dbpedia.org/resource/Bob_Brunner"
  },
  {
    "id": 381,
    "name": "Bob Carroll Jr.",
    "birth_year": 1918,
    "birthplace": "United States",
    "latitude": 38.88333511352539,
    "longitude": -77.01667022705078,
    "dbpedia_uri": "http://dbpedia.org/resource/Bob_Carroll_Jr."
  },
  {
    "id": 382,
    "name": "Bob Dylan",
    "birth_year": 1941,
    "birthplace": "Duluth, Minnesota",
    "latitude": 46.78327178955078,
    "longitude": -92.10657501220703,
    "dbpedia_uri": "http://dbpedia.org/resource/Bob_Dylan"
  },
  {
    "id": 383,
    "name": "Bob Mortimer",
    "birth_year": 1959,
    "birthplace": "Middlesbrough",
    "latitude": 54.57669830322266,
    "longitude": -1.235499978065491,
    "dbpedia_uri": "http://dbpedia.org/resource/Bob_Mortimer"
  },
  {
    "id": 384,
    "name": "Bob Peterson",
    "birth_year": 1961,
    "birthplace": "Ohio",
    "latitude": 40.0,
    "longitude": -83.0,
    "dbpedia_uri": "http://dbpedia.org/resource/Bob_Peterson_(filmmaker)"
  },
  {
    "id": 385,
    "name": "Bobcat Goldthwait",
    "birth_year": 1962,
    "birthplace": "Syracuse, New York",
    "latitude": 43.03027725219727,
    "longitude": -76.14444732666016,
    "dbpedia_uri": "http://dbpedia.org/resource/Bobcat_Goldthwait"
  },
  {
    "id": 386,
    "name": "Boria Majumdar",
    "birth_year": 1976,
    "birthplace": "India",
    "latitude": 28.61388969421387,
    "longitude": 77.20833587646484,
    "dbpedia_uri": "http://dbpedia.org/resource/Boria_Majumdar"
  },
  {
    "id": 387,
    "name": "Brad Mehldau",
    "birth_year": 1970,
    "birthplace": "Jacksonville, Florida",
    "latitude": 30.33694458007812,
    "longitude": -81.66139221191406,
    "dbpedia_uri": "http://dbpedia.org/resource/Brad_Mehldau"
  },
  {
    "id": 388,
    "name": "Brad Neely",
    "birth_year": 1976,
    "birthplace": "Fort Smith, Arkansas",
    "latitude": 35.37972259521484,
    "longitude": -94.38194274902344,
    "dbpedia_uri": "http://dbpedia.org/resource/Brad_Neely"
  },
  {
    "id": 389,
    "name": "Bradley Bell",
    "birth_year": 1964,
    "birthplace": "Chicago",
    "latitude": 41.88194274902344,
    "longitude": -87.62777709960938,
    "dbpedia_uri": "http://dbpedia.org/resource/Bradley_Bell"
  },
  {
    "id": 390,
    "name": "Brian Clemens",
    "birth_year": 1931,
    "birthplace": "England",
    "latitude": 51.5,
    "longitude": -0.116666667163372,
    "dbpedia_uri": "http://dbpedia.org/resource/Brian_Clemens"
  },
  {
    "id": 391,
    "name": "Brian Volk-Weiss",
    "birth_year": 1976,
    "birthplace": "Queens",
    "latitude": 40.75,
    "longitude": -73.86666870117188,
    "dbpedia_uri": "http://dbpedia.org/resource/Brian_Volk-Weiss"
  },
  {
    "id": 392,
    "name": "Bruce Campbell",
    "birth_year": 1958,
    "birthplace": "Royal Oak, Michigan",
    "latitude": 42.48888778686523,
    "longitude": -83.14277648925781,
    "dbpedia_uri": "http://dbpedia.org/resource/Bruce_Campbell"
  },
  {
    "id": 393,
    "name": "Brucie Mao Pow",
    "birth_year": 1959,
    "birthplace": "Ontario",
    "latitude": 49.25,
    "longitude": -84.5,
    "dbpedia_uri": "http://dbpedia.org/resource/Bruce_Mau"
  },
  {
    "id": 394,
    "name": "Bruce Springsteen",
    "birth_year": 1949,
    "birthplace": "Long Branch, New Jersey",
    "latitude": 40.29537200927734,
    "longitude": -73.98989868164062,
    "dbpedia_uri": "http://dbpedia.org/resource/Bruce_Springsteen"
  },
  {
    "id": 395,
    "name": "Bruno Bozzetto",
    "birth_year": 1938,
    "birthplace": "Milan",
    "latitude": 45.46694564819336,
    "longitude": 9.1899995803833,
    "dbpedia_uri": "http://dbpedia.org/resource/Bruno_Bozzetto"
  },
  {
    "id": 396,
    "name": "Bryan Elsley",
    "birth_year": 1961,
    "birthplace": "Midlothian",
    "latitude": 55.8941650390625,
    "longitude": -3.068611145019531,
    "dbpedia_uri": "http://dbpedia.org/resource/Bryan_Elsley"
  },
  {
    "id": 397,
    "name": "Butch Hartman",
    "birth_year": 1965,
    "birthplace": "Highland Park, Michigan",
    "latitude": 42.40555572509766,
    "longitude": -83.0969467163086,
    "dbpedia_uri": "http://dbpedia.org/resource/Butch_Hartman"
  },
  {
    "id": 398,
    "name": "C. L. R. James",
    "birth_year": 1901,
    "birthplace": "Trinidad and Tobago",
    "latitude": 10.66699981689453,
    "longitude": -61.50749969482422,
    "dbpedia_uri": "http://dbpedia.org/resource/C._L._R._James"
  },
  {
    "id": 399,
    "name": "C. M. Kösemen",
    "birth_year": 1984,
    "birthplace": "Ankara",
    "latitude": 39.93000030517578,
    "longitude": 32.84999847412109,
    "dbpedia_uri": "http://dbpedia.org/resource/C._M._Kosemen"
  },
  {
    "id": 400,
    "name": "Caitlin Moran",
    "birth_year": 1975,
    "birthplace": "Brighton",
    "latitude": 50.82083511352539,
    "longitude": -0.1375000029802322,
    "dbpedia_uri": "http://dbpedia.org/resource/Caitlin_Moran"
  },
  {
    "id": 401,
    "name": "Cao Hamburger",
    "birth_year": 1962,
    "birthplace": "São Paulo",
    "latitude": -23.54999923706055,
    "longitude": -46.63333511352539,
    "dbpedia_uri": "http://dbpedia.org/resource/Cao_Hamburger"
  },
  {
    "id": 402,
    "name": "Carl Schmitt",
    "birth_year": 1888,
    "birthplace": "German Empire",
    "latitude": 52.51861190795898,
    "longitude": 13.37611103057861,
    "dbpedia_uri": "http://dbpedia.org/resource/Carl_Schmitt"
  },
  {
    "id": 403,
    "name": "Carrie Fisher",
    "birth_year": 1956,
    "birthplace": "Burbank, California",
    "latitude": 34.18027877807617,
    "longitude": -118.3283309936523,
    "dbpedia_uri": "http://dbpedia.org/resource/Carrie_Fisher"
  },
  {
    "id": 404,
    "name": "Carson Ellis",
    "birth_year": 1975,
    "birthplace": "Vancouver",
    "latitude": 49.26083374023438,
    "longitude": -123.1138916015625,
    "dbpedia_uri": "http://dbpedia.org/resource/Carson_Ellis"
  },
  {
    "id": 405,
    "name": "Caryl Brahms",
    "birth_year": 1901,
    "birthplace": "Croydon",
    "latitude": 51.37139892578125,
    "longitude": -0.1037999987602234,
    "dbpedia_uri": "http://dbpedia.org/resource/Caryl_Brahms"
  },
  {
    "id": 406,
    "name": "Cass Sunstein",
    "birth_year": 1954,
    "birthplace": "Concord, Massachusetts",
    "latitude": 42.46027755737305,
    "longitude": -71.34944152832031,
    "dbpedia_uri": "http://dbpedia.org/resource/Cass_Sunstein"
  },
  {
    "id": 407,
    "name": "Cassandra Peterson",
    "birth_year": 1951,
    "birthplace": "Manhattan, Kansas",
    "latitude": 39.1886100769043,
    "longitude": -96.60472106933594,
    "dbpedia_uri": "http://dbpedia.org/resource/Cassandra_Peterson"
  },
  {
    "id": 408,
    "name": "Celeste Buckingham",
    "birth_year": 1995,
    "birthplace": "Zurich",
    "latitude": 47.37444305419922,
    "longitude": 8.54111099243164,
    "dbpedia_uri": "http://dbpedia.org/resource/Celeste_Buckingham"
  },
  {
    "id": 409,
    "name": "Charles Bukowski",
    "birth_year": 1920,
    "birthplace": "Weimar Republic",
    "latitude": 52.51666641235352,
    "longitude": 13.38333320617676,
    "dbpedia_uri": "http://dbpedia.org/resource/Charles_Bukowski"
  },
  {
    "id": 410,
    "name": "Charles Darwin",
    "birth_year": 1809,
    "birthplace": "Shrewsbury",
    "latitude": 52.70800018310547,
    "longitude": -2.753999948501587,
    "dbpedia_uri": "http://dbpedia.org/resource/Charles_Darwin"
  },
  {
    "id": 411,
    "name": "Charles MacArthur",
    "birth_year": 1895,
    "birthplace": "Scranton, Pennsylvania",
    "latitude": 41.41055679321289,
    "longitude": -75.6675033569336,
    "dbpedia_uri": "http://dbpedia.org/resource/Charles_MacArthur"
  },